# LAS format log file from PETREL
# Project units are specified as depth units
#==================================================================
~Version information
VERS.   2.0:
WRAP.   NO:
#==================================================================
~Well
STRT .m      0.0000000000 :
STOP .m      2974.0000000 :
STEP .m     0.50000000 :
NULL .        -999.250000 :
COMP.           : COMPANY
WELL.  AMR-1   : WELL
FLD.            : FIELD
LOC.            : LOCATION
SRVC.           : SERVICE COMPANY
DATE.  2022-11-03 20:42:11   : Log Export Date {yyyy-MM-dd HH:mm:ss}
PROV.           : PROVINCE
UWI.   11000075013701   : UNIQUE WELL ID
API.            : API NUMBER
#==================================================================
~Curve
DEPT .m                   : DEPTH
NEU .m3/m3                : NEU
NEUT .m3/m3               : NEUT
DENS .g/cm3               : DENS
DEN .g/cm3                : DEN
DTC_Avg2 .us/ft           : DTC_Avg2
GR .gAPI                  : GR
PORNET_NOV14 .m3/m3       : PORNET_NOV14
CALI .in                  : CALI
CAL .in                   : CAL
RESD .ohm.m               : RESD
RES_DEP .ohm.m            : RES_DEP
VCL_2014 ._               : VCL_2014
~Parameter
#==================================================================
~Ascii
# ...
 1512.0000000  -999.250000  -999.250000 2.5367114544 2.5367114544 73.845443726 14.252532959  -999.250000 13.204507828 13.204507828 2.9958653450 2.9958653450  -999.250000
 1512.5000000  -999.250000  -999.250000 2.5366935730 2.5366935730 72.606086731 14.273978233  -999.250000 13.191231728 13.191231728 2.9920277596 2.9920277596  -999.250000
 1513.0000000  -999.250000  -999.250000 2.5366759300 2.5366759300 74.250694275 14.295416832  -999.250000 13.177958488 13.177958488 2.9881911278 2.9881911278  -999.250000
 1513.5000000  -999.250000  -999.250000 2.5366580486 2.5366580486 76.185386658 14.316859245  -999.250000 13.164682388 13.164682388 2.9843537807 2.9843537807  -999.250000
 1514.0000000  -999.250000  -999.250000 2.5366401672 2.5366401672 75.133338928 14.338298798  -999.250000 13.151410103 13.151410103 2.9805171490 2.9805171490  -999.250000
 1514.5000000  -999.250000  -999.250000 2.5366225243 2.5366225243 73.028854370 14.359743118  -999.250000 13.138134003 13.138134003 2.9766795635 2.9766795635  -999.250000
 1515.0000000  -999.250000  -999.250000 2.5366046429 2.5366046429 73.183509827 14.381181717  -999.250000 13.124859810 13.124859810 2.9728429317 2.9728429317  -999.250000
 1515.5000000  -999.250000  -999.250000 2.5365869999 2.5365869999 73.564208984 14.402625084  -999.250000 13.111584663 13.111584663 2.9690055847 2.9690055847  -999.250000
 1516.0000000  -999.250000  -999.250000 2.5365691185 2.5365691185 73.577957153 14.424064636  -999.250000 13.098311424 13.098311424 2.9651689529 2.9651689529  -999.250000
 1516.5000000  -999.250000  -999.250000 2.5365514755 2.5365514755 74.204689026 14.445508957  -999.250000 13.085035324 13.085035324 2.9613313675 2.9613313675  -999.250000
 1517.0000000  -999.250000  -999.250000 2.5365335941 2.5365335941 75.287429810 14.466947556  -999.250000 13.071762085 13.071762085 2.9574947357 2.9574947357  -999.250000
 1517.5000000  -999.250000  -999.250000 2.5365157127 2.5365157127 73.347457886 14.488389969  -999.250000 13.058486938 13.058486938 2.9536573887 2.9536573887  -999.250000
 1518.0000000  -999.250000  -999.250000 2.5364980698 2.5364980698 74.184707642 14.509830475  -999.250000 13.045213699 13.045213699 2.9498205185 2.9498205185  -999.250000
 1518.5000000  -999.250000  -999.250000 2.5364801884 2.5364801884 73.015625000 14.531273842  -999.250000 13.031936646 13.031936646 2.9459829330 2.9459829330  -999.250000
 1519.0000000  -999.250000  -999.250000 2.5364625454 2.5364625454 72.596679688 14.552713394  -999.250000 13.018664360 13.018664360 2.9421465397 2.9421465397  -999.250000
 1519.5000000  -999.250000  -999.250000 2.5364446640 2.5364446640 73.077636719 14.574154854  -999.250000 13.005390167 13.005390167 2.9383094311 2.9383094311  -999.250000
 1520.0000000  -999.250000  -999.250000 2.5364270210 2.5364270210 74.134529114 14.595596313  -999.250000 12.992115021 12.992115021 2.9344723225 2.9344723225  -999.250000
 1520.5000000  -999.250000  -999.250000 2.5364091396 2.5364091396 71.949798584 14.617039680  -999.250000 12.978838921 12.978838921 2.9306347370 2.9306347370  -999.250000
 1521.0000000  -999.250000  -999.250000 2.5363912582 2.5363912582 73.044288635 14.638479233  -999.250000 12.965565681 12.965565681 2.9267981052 2.9267981052  -999.250000
 1521.5000000  -999.250000  -999.250000 2.5363733768 2.5363733768 73.499191284 14.659919739  -999.250000 12.952292442 12.952292442 2.9229612350 2.9229612350  -999.250000
 1522.0000000  -999.250000  -999.250000 2.5363557339 2.5363557339 72.289260864 14.681361198  -999.250000 12.939017296 12.939017296 2.9191238880 2.9191238880  -999.250000
 1522.5000000  -999.250000  -999.250000 2.5363378525 2.5363378525 72.681831360 14.702805519  -999.250000 12.925741196 12.925741196 2.9152865410 2.9152865410  -999.250000
 1523.0000000  -999.250000  -999.250000 2.5363202095 2.5363202095 72.366867065 14.724245071  -999.250000 12.912467957 12.912467957 2.9114499092 2.9114499092  -999.250000
 1523.5000000  -999.250000  -999.250000 2.5363023281 2.5363023281 70.650741577 14.745684624  -999.250000 12.899193764 12.899193764 2.9076130390 2.9076130390  -999.250000
 1524.0000000  -999.250000  -999.250000 2.5362846851 2.5362846851 71.540000916 14.767127991  -999.250000 12.885918617 12.885918617 2.9037756920 2.9037756920  -999.250000
 1524.5000000  -999.250000  -999.250000 2.5362670422 2.5362670422 72.426910400 14.788570404  -999.250000 12.872643471 12.872643471 2.8999385834 2.8999385834  -999.250000
 1525.0000000  -999.250000  -999.250000 2.5362491608 2.5362491608 72.776168823 14.810009956  -999.250000 12.859369278 12.859369278 2.8961017132 2.8961017132  -999.250000
 1525.5000000  -999.250000  -999.250000 2.5362312794 2.5362312794 72.673301697 14.831449509  -999.250000 12.846096039 12.846096039 2.8922648430 2.8922648430  -999.250000
 1526.0000000  -999.250000  -999.250000 2.5362133980 2.5362133980 72.514915466 14.852893829  -999.250000 12.832820892 12.832820892 2.8884274960 2.8884274960  -999.250000
 1526.5000000  -999.250000  -999.250000 2.5361957550 2.5361957550 71.264198303 14.874335289  -999.250000 12.819545746 12.819545746 2.8845903873 2.8845903873  -999.250000
 1527.0000000  -999.250000  -999.250000 2.5361778736 2.5361778736 71.188407898 14.895775795  -999.250000 12.806271553 12.806271553 2.8807535172 2.8807535172  -999.250000
 1527.5000000  -999.250000  -999.250000 2.5361602306 2.5361602306 72.112815857 14.917215347  -999.250000 12.792998314 12.792998314 2.8769168854 2.8769168854  -999.250000
 1528.0000000  -999.250000  -999.250000 2.5361423492 2.5361423492 72.974975586 14.938658714  -999.250000 12.779722214 12.779722214 2.8730790615 2.8730790615  -999.250000
 1528.5000000  -999.250000  -999.250000 2.5361244678 2.5361244678 71.018638611 14.960100174  -999.250000 12.766448021 12.766448021 2.8692421913 2.8692421913  -999.250000
 1529.0000000  -999.250000  -999.250000 2.5361068249 2.5361068249 71.510261536 14.981542587  -999.250000 12.753173828 12.753173828 2.8654050827 2.8654050827  -999.250000
 1529.5000000  -999.250000  -999.250000 2.5360889435 2.5360889435 70.745361328 15.002981186  -999.250000 12.739900589 12.739900589 2.8615686893 2.8615686893  -999.250000
 1530.0000000  -999.250000  -999.250000 2.5360710621 2.5360710621 70.597274780 15.024424553  -999.250000 12.726624489 12.726624489 2.8577308655 2.8577308655  -999.250000
 1530.5000000  -999.250000  -999.250000 2.5360534191 2.5360534191 71.286819458 15.045865059  -999.250000 12.713350296 12.713350296 2.8538939953 2.8538939953  -999.250000
 1531.0000000  -999.250000  -999.250000 2.5360357761 2.5360357761 70.552680969 15.067307472  -999.250000 12.700075150 12.700075150 2.8500568867 2.8500568867  -999.250000
 1531.5000000  -999.250000  -999.250000 2.5360178947 2.5360178947 69.913574219 15.088746071  -999.250000 12.686801910 12.686801910 2.8462202549 2.8462202549  -999.250000
 1532.0000000  -999.250000  -999.250000 2.5360002518 2.5360002518 72.517929077 15.110190392  -999.250000 12.673525810 12.673525810 2.8423826694 2.8423826694  -999.250000
 1532.5000000  -999.250000  -999.250000 2.5359823704 2.5359823704 71.956809998 15.131630898  -999.250000 12.660252571 12.660252571 2.8385457993 2.8385457993  -999.250000
 1533.0000000  -999.250000  -999.250000 2.5359644890 2.5359644890 72.897178650 15.153073311  -999.250000 12.646977425 12.646977425 2.8347086906 2.8347086906  -999.250000
 1533.5000000  -999.250000  -999.250000 2.5359468460 2.5359468460 71.733230591 15.174511909  -999.250000 12.633704185 12.633704185 2.8308720589 2.8308720589  -999.250000
 1534.0000000  -999.250000  -999.250000 2.5359289646 2.5359289646 71.938835144 15.195956230  -999.250000 12.620428085 12.620428085 2.8270344734 2.8270344734  -999.250000
 1534.5000000  -999.250000  -999.250000 2.5359110832 2.5359110832 73.417411804 15.217395782  -999.250000 12.607154846 12.607154846 2.8231978416 2.8231978416  -999.250000
 1535.0000000  -999.250000  -999.250000 2.5358934402 2.5358934402 72.643959045 15.238838196  -999.250000 12.593878746 12.593878746 2.8193604946 2.8193604946  -999.250000
 1535.5000000  -999.250000  -999.250000 2.5358755589 2.5358755589 74.554763794 15.260277748  -999.250000 12.580605507 12.580605507 2.8155236244 2.8155236244  -999.250000
