# LAS format log file from PETREL
# Project units are specified as depth units
#==================================================================
~Version information
VERS.   2.0:
WRAP.   NO:
#==================================================================
~Well
STRT .m      0.0000000000 :
STOP .m      2974.0000000 :
STEP .m     0.50000000 :
NULL .        -999.250000 :
COMP.           : COMPANY
WELL.  AMR-1   : WELL
FLD.            : FIELD
LOC.            : LOCATION
SRVC.           : SERVICE COMPANY
DATE.  2022-11-03 20:42:11   : Log Export Date {yyyy-MM-dd HH:mm:ss}
PROV.           : PROVINCE
UWI.   11000075013701   : UNIQUE WELL ID
API.            : API NUMBER
#==================================================================
~Curve
DEPT .m                   : DEPTH
NEU .m3/m3                : NEU
NEUT .m3/m3               : NEUT
DENS .g/cm3               : DENS
DEN .g/cm3                : DEN
DTC_Avg2 .us/ft           : DTC_Avg2
GR .gAPI                  : GR
PORNET_NOV14 .m3/m3       : PORNET_NOV14
CALI .in                  : CALI
CAL .in                   : CAL
RESD .ohm.m               : RESD
RES_DEP .ohm.m            : RES_DEP
VCL_2014 ._               : VCL_2014
~Parameter
#==================================================================
~Ascii
# ...
 984.00000000  -999.250000  -999.250000 2.2560784817 2.2560784817 94.364875793 9.5770072937  -999.250000 18.028614044 18.028614044 0.5160068274 0.5160068274  -999.250000
 984.50000000  -999.250000  -999.250000 2.2767093182 2.2767093182 93.850135803 8.4515810013  -999.250000 18.025053024 18.025053024 0.5724713802 0.5724713802  -999.250000
 985.00000000  -999.250000  -999.250000 2.2926511765 2.2926511765 91.294464111 7.2228317261  -999.250000 18.050704956 18.050704956 0.5847452879 0.5847452879  -999.250000
 985.50000000  -999.250000  -999.250000 2.2511811256 2.2511811256 94.203147888 7.4638037682  -999.250000 18.045606613 18.045606613 0.5530392528 0.5530392528  -999.250000
 986.00000000  -999.250000  -999.250000 2.2211029530 2.2211029530 96.064552307 8.1319732666  -999.250000 18.078346252 18.078346252 0.5133896470 0.5133896470  -999.250000
 986.50000000  -999.250000  -999.250000 2.2452244759 2.2452244759 94.948234558 8.1680278778  -999.250000 18.090164185 18.090164185 0.5035817623 0.5035817623  -999.250000
 987.00000000  -999.250000  -999.250000 2.2356464863 2.2356464863 95.452224731 7.7200746536  -999.250000 18.140670776 18.140670776 0.5380488634 0.5380488634  -999.250000
 987.50000000  -999.250000  -999.250000 2.2529528141 2.2529528141 95.584251404 8.4999322891  -999.250000 18.177270889 18.177270889 0.5869054794 0.5869054794  -999.250000
 988.00000000  -999.250000  -999.250000 2.2543628216 2.2543628216 91.859306335 8.7942180634  -999.250000 18.191757202 18.191757202 0.5883023739 0.5883023739  -999.250000
 988.50000000  -999.250000  -999.250000 2.2160139084 2.2160139084 94.547386169 9.5227441788  -999.250000 18.225666046 18.225666046 0.5674553514 0.5674553514  -999.250000
 989.00000000  -999.250000  -999.250000 2.2224986553 2.2224986553 95.771545410 9.0270099640  -999.250000 18.418569565 18.418569565 0.5349859595 0.5349859595  -999.250000
 989.50000000  -999.250000  -999.250000 2.2495641708 2.2495641708 93.931632996 9.8972454071  -999.250000 18.587236404 18.587236404 0.5120893121 0.5120893121  -999.250000
 990.00000000  -999.250000  -999.250000 2.2360000610 2.2360000610 96.673347473 9.1671323776  -999.250000 18.720766068 18.720766068 0.5119371414 0.5119371414  -999.250000
 990.50000000  -999.250000  -999.250000 2.2373118401 2.2373118401 96.031219482 9.8931312561  -999.250000 18.871072769 18.871072769 0.5016880035 0.5016880035  -999.250000
 991.00000000  -999.250000  -999.250000 2.2307505608 2.2307505608 96.659637451 8.6111860275  -999.250000 19.014986038 19.014986038 0.5171237588 0.5171237588  -999.250000
 991.50000000  -999.250000  -999.250000 2.2430548668 2.2430548668 95.897125244 8.0296010971  -999.250000 19.173219681 19.173219681 0.5180000067 0.5180000067  -999.250000
 992.00000000  -999.250000  -999.250000 2.2440688610 2.2440688610 96.067893982 8.0243883133  -999.250000 19.289165497 19.289165497 0.5130688548 0.5130688548  -999.250000
 992.50000000  -999.250000  -999.250000 2.2402610779 2.2402610779 96.755882263 8.0264596939  -999.250000 19.327466965 19.327466965 0.4944569468 0.4944569468  -999.250000
 993.00000000  -999.250000  -999.250000 2.2307558060 2.2307558060 97.669456482 6.8354558945  -999.250000 19.167671204 19.167671204 0.4682519138 0.4682519138  -999.250000
 993.50000000  -999.250000  -999.250000 2.2232882977 2.2232882977 98.470695496 7.1101026535  -999.250000 18.903356552 18.903356552 0.4721441865 0.4721441865  -999.250000
 994.00000000  -999.250000  -999.250000 2.2570245266 2.2570245266 95.048744202 6.5252728462  -999.250000 18.787214279 18.787214279 0.4992382824 0.4992382824  -999.250000
 994.50000000  -999.250000  -999.250000 2.2438228130 2.2438228130 95.417518616 6.7111129761  -999.250000 18.767999649 18.767999649 0.4998185933 0.4998185933  -999.250000
 995.00000000  -999.250000  -999.250000 2.2075710297 2.2075710297 97.898635864 7.9646434784  -999.250000 18.771614075 18.771614075 0.4696711898 0.4696711898  -999.250000
 995.50000000  -999.250000  -999.250000 2.1856086254 2.1856086254 98.931167603 8.9527378082  -999.250000 18.780609131 18.780609131 0.4461521804 0.4461521804  -999.250000
 996.00000000  -999.250000  -999.250000 2.1944329739 2.1944329739 99.393829346 7.4844837189  -999.250000 18.794464111 18.794464111 0.4499999881 0.4499999881  -999.250000
 996.50000000  -999.250000  -999.250000 2.2104265690 2.2104265690 98.521980286 8.0377311707  -999.250000 18.827426910 18.827426910 0.4490000010 0.4490000010  -999.250000
 997.00000000  -999.250000  -999.250000 2.2160730362 2.2160730362 98.972702026 9.6556406021  -999.250000 18.859970093 18.859970093 0.4480052292 0.4480052292  -999.250000
 997.50000000  -999.250000  -999.250000 2.1841022968 2.1841022968 99.169174194 7.2263069153  -999.250000 18.864826202 18.864826202 0.4400712848 0.4400712848  -999.250000
 998.00000000  -999.250000  -999.250000 2.1679999828 2.1679999828 100.49624634 9.6000957489  -999.250000 18.882005692 18.882005692 0.4205498695 0.4205498695  -999.250000
 998.50000000  -999.250000  -999.250000 2.2165853977 2.2165853977 99.518325806 8.5806322098  -999.250000 18.911024094 18.911024094 0.4085122347 0.4085122347  -999.250000
 999.00000000  -999.250000  -999.250000 2.2046453953 2.2046453953 100.62239075 9.2709493637  -999.250000 18.903999329 18.903999329 0.4338269830 0.4338269830  -999.250000
 999.50000000  -999.250000  -999.250000 2.2076122761 2.2076122761 98.943725586 7.2419991493  -999.250000 18.908000946 18.908000946 0.4481966197 0.4481966197  -999.250000
 1000.0000000  -999.250000  -999.250000 2.2007575035 2.2007575035 99.248138428 8.5302724838  -999.250000 18.912000656 18.912000656 0.4566407800 0.4566407800  -999.250000
 1000.5000000  -999.250000  -999.250000 2.2081961632 2.2081961632 100.52397156 6.9854273796  -999.250000 18.908119202 18.908119202 0.4431569874 0.4431569874  -999.250000
 1001.0000000  -999.250000  -999.250000 2.2080340385 2.2080340385 100.19360352 6.8809151649  -999.250000 18.908000946 18.908000946 0.4399999976 0.4399999976  -999.250000
 1001.5000000  -999.250000  -999.250000 2.2108333111 2.2108333111 99.310234070 8.5628347397  -999.250000 18.912000656 18.912000656 0.4460444450 0.4460444450  -999.250000
 1002.0000000  -999.250000  -999.250000 2.2337734699 2.2337734699 98.789421082 8.1443738937  -999.250000 18.915409088 18.915409088 0.4449999928 0.4449999928  -999.250000
 1002.5000000  -999.250000  -999.250000 2.2120840549 2.2120840549 100.71257782 8.0325794220  -999.250000 18.927083969 18.927083969 0.4388318062 0.4388318062  -999.250000
 1003.0000000  -999.250000  -999.250000 2.2118108273 2.2118108273 98.172012329 9.2399291992  -999.250000 18.974998474 18.974998474 0.4271757901 0.4271757901  -999.250000
 1003.5000000  -999.250000  -999.250000 2.1807720661 2.1807720661 102.05535889 8.5272798538  -999.250000 19.093303680 19.093303680 0.4147721231 0.4147721231  -999.250000
 1004.0000000  -999.250000  -999.250000 2.2073366642 2.2073366642 100.90863800 8.7500219345  -999.250000 19.317367554 19.317367554 0.4069263041 0.4069263041  -999.250000
 1004.5000000  -999.250000  -999.250000 2.2231702805 2.2231702805 99.834449768 7.5965270996  -999.250000 19.765159607 19.765159607 0.4140000045 0.4140000045  -999.250000
 1005.0000000  -999.250000  -999.250000 2.1996536255 2.1996536255 101.19707489 9.3024406433  -999.250000 19.621377945 19.621377945 0.4020945132 0.4020945132  -999.250000
 1005.5000000  -999.250000  -999.250000 2.2197690010 2.2197690010 100.62322998 7.9463520050  -999.250000 19.674552917 19.674552917 0.3993067741 0.3993067741  -999.250000
 1006.0000000  -999.250000  -999.250000 2.2131502628 2.2131502628 99.293983459 6.5256447792  -999.250000 19.640199661 19.640199661 0.4355005920 0.4355005920  -999.250000
 1006.5000000  -999.250000  -999.250000 2.2006845474 2.2006845474 98.758590698 6.8447141647  -999.250000 19.466159821 19.466159821 0.4753003418 0.4753003418  -999.250000
 1007.0000000  -999.250000  -999.250000 2.2108922005 2.2108922005 98.546798706 7.5423645973  -999.250000 19.292036057 19.292036057 0.4829923809 0.4829923809  -999.250000
 1007.5000000  -999.250000  -999.250000 2.2147541046 2.2147541046 98.329765320 8.5399627686  -999.250000 19.163940430 19.163940430 0.4518618286 0.4518618286  -999.250000
