# LAS format log file from PETREL
# Project units are specified as depth units
#==================================================================
~Version information
VERS.   2.0:
WRAP.   NO:
#==================================================================
~Well
STRT .m      0.0000000000 :
STOP .m      2974.0000000 :
STEP .m     0.50000000 :
NULL .        -999.250000 :
COMP.           : COMPANY
WELL.  AMR-1   : WELL
FLD.            : FIELD
LOC.            : LOCATION
SRVC.           : SERVICE COMPANY
DATE.  2022-11-03 20:42:11   : Log Export Date {yyyy-MM-dd HH:mm:ss}
PROV.           : PROVINCE
UWI.   11000075013701   : UNIQUE WELL ID
API.            : API NUMBER
#==================================================================
~Curve
DEPT .m                   : DEPTH
NEU .m3/m3                : NEU
NEUT .m3/m3               : NEUT
DENS .g/cm3               : DENS
DEN .g/cm3                : DEN
DTC_Avg2 .us/ft           : DTC_Avg2
GR .gAPI                  : GR
PORNET_NOV14 .m3/m3       : PORNET_NOV14
CALI .in                  : CALI
CAL .in                   : CAL
RESD .ohm.m               : RESD
RES_DEP .ohm.m            : RES_DEP
VCL_2014 ._               : VCL_2014
~Parameter
#==================================================================
~Ascii
# ...
 2400.0000000  -999.250000  -999.250000 2.0760319233 2.0760319233 67.911743164 11.388887405  -999.250000 10.214511871 10.214511871 1499.0980225 1499.0980225  -999.250000
 2400.5000000  -999.250000  -999.250000 2.0858750343 2.0858750343 68.163253784 11.432062149  -999.250000 10.171375275 10.171375275 1444.5051270 1444.5051270  -999.250000
 2401.0000000  -999.250000  -999.250000 2.0776281357 2.0776281357 68.576583862 13.870769501  -999.250000 10.222105980 10.222105980 1438.5401611 1438.5401611  -999.250000
 2401.5000000  -999.250000  -999.250000 2.0648736954 2.0648736954 68.118507385 11.712221146  -999.250000 10.162181854 10.162181854 1501.0992432 1501.0992432  -999.250000
 2402.0000000  -999.250000  -999.250000 2.0740864277 2.0740864277 68.126777649 12.363811493  -999.250000 10.223015785 10.223015785 1492.6271973 1492.6271973  -999.250000
 2402.5000000  -999.250000  -999.250000 2.0872564316 2.0872564316 68.514717102 13.766179085  -999.250000 10.150359154 10.150359154 1490.4785156 1490.4785156  -999.250000
 2403.0000000  -999.250000  -999.250000 2.0755815506 2.0755815506 68.886726379 12.131192207  -999.250000 10.200548172 10.200548172 1509.0063477 1509.0063477  -999.250000
 2403.5000000  -999.250000  -999.250000 2.0789840221 2.0789840221 68.300491333 10.049835205  -999.250000 10.229858398 10.229858398 1522.9473877 1522.9473877  -999.250000
 2404.0000000  -999.250000  -999.250000 2.0643408298 2.0643408298 68.297744751 10.794262886  -999.250000 10.209516525 10.209516525 1545.2951660 1545.2951660  -999.250000
 2404.5000000  -999.250000  -999.250000 2.0882370472 2.0882370472 68.250015259 11.982933998  -999.250000 10.185002327 10.185002327 1587.6739502 1587.6739502  -999.250000
 2405.0000000  -999.250000  -999.250000 2.0864808559 2.0864808559 68.066268921 10.264256477  -999.250000 10.209320068 10.209320068 1580.1112061 1580.1112061  -999.250000
 2405.5000000  -999.250000  -999.250000 2.0746009350 2.0746009350 68.096939087 8.9603404999  -999.250000 10.219798088 10.219798088 1563.6958008 1563.6958008  -999.250000
 2406.0000000  -999.250000  -999.250000 2.0884015560 2.0884015560 68.142822266 11.798673630  -999.250000 10.207920074 10.207920074 1462.8288574 1462.8288574  -999.250000
 2406.5000000  -999.250000  -999.250000 2.1055576801 2.1055576801 68.259330750 15.690461159  -999.250000 10.246904373 10.246904373 1420.4755859 1420.4755859  -999.250000
 2407.0000000  -999.250000  -999.250000 2.1181473732 2.1181473732 68.161521912 16.829999924  -999.250000 10.140437126 10.140437126 1317.9339600 1317.9339600  -999.250000
 2407.5000000  -999.250000  -999.250000 2.1132435799 2.1132435799 68.420852661 15.686692238  -999.250000 10.243013382 10.243013382 1254.9588623 1254.9588623  -999.250000
 2408.0000000  -999.250000  -999.250000 2.1049504280 2.1049504280 67.808830261 12.335031509  -999.250000 10.199206352 10.199206352 1299.5058594 1299.5058594  -999.250000
 2408.5000000  -999.250000  -999.250000 2.1081635952 2.1081635952 68.829421997 11.124329567  -999.250000 10.221011162 10.221011162 1289.8977051 1289.8977051  -999.250000
 2409.0000000  -999.250000  -999.250000 2.0886924267 2.0886924267 68.480598450 12.276836395  -999.250000 10.235750198 10.235750198 1307.2969971 1307.2969971  -999.250000
 2409.5000000  -999.250000  -999.250000 2.1056971550 2.1056971550 68.427581787 11.445291519  -999.250000 10.234623909 10.234623909 1345.5196533 1345.5196533  -999.250000
 2410.0000000  -999.250000  -999.250000 2.0945918560 2.0945918560 68.210823059 10.911064148  -999.250000 10.303152084 10.303152084 1355.8406982 1355.8406982  -999.250000
 2410.5000000  -999.250000  -999.250000 2.0948588848 2.0948588848 68.374176025 12.269063950  -999.250000 10.231282234 10.231282234 1299.4663086 1299.4663086  -999.250000
 2411.0000000  -999.250000  -999.250000 2.1049501896 2.1049501896 68.033164978 13.351355553  -999.250000 10.205779076 10.205779076 1296.0739746 1296.0739746  -999.250000
 2411.5000000  -999.250000  -999.250000 2.1044905186 2.1044905186 68.614730835 12.219153404  -999.250000 10.207557678 10.207557678 1309.6948242 1309.6948242  -999.250000
 2412.0000000  -999.250000  -999.250000 2.0929152966 2.0929152966 67.982154846 12.003927231  -999.250000 10.289228439 10.289228439 1305.4571533 1305.4571533  -999.250000
 2412.5000000  -999.250000  -999.250000 2.0915241241 2.0915241241 68.252960205 10.682615280  -999.250000 10.279893875 10.279893875 1324.2342529 1324.2342529  -999.250000
 2413.0000000  -999.250000  -999.250000 2.0833334923 2.0833334923 68.521003723 10.817667007  -999.250000 10.212666512 10.212666512 1356.5622559 1356.5622559  -999.250000
 2413.5000000  -999.250000  -999.250000 2.0836825371 2.0836825371 68.572967529 11.146941185  -999.250000 10.247703552 10.247703552 1352.2570801 1352.2570801  -999.250000
 2414.0000000  -999.250000  -999.250000 2.0878446102 2.0878446102 68.357452393 10.112653732  -999.250000 10.243049622 10.243049622 1377.7308350 1377.7308350  -999.250000
 2414.5000000  -999.250000  -999.250000 2.0734102726 2.0734102726 68.363410950 11.597743988  -999.250000 10.308352470 10.308352470 1386.1879883 1386.1879883  -999.250000
 2415.0000000  -999.250000  -999.250000 2.0872836113 2.0872836113 67.970001221 13.533875465  -999.250000 10.235644341 10.235644341 1375.6414795 1375.6414795  -999.250000
 2415.5000000  -999.250000  -999.250000 2.0911602974 2.0911602974 68.538597107 13.650108337  -999.250000 10.261538506 10.261538506 1374.0450439 1374.0450439  -999.250000
 2416.0000000  -999.250000  -999.250000 2.0888061523 2.0888061523 68.438896179 11.325529099  -999.250000 10.209157944 10.209157944 1371.0773926 1371.0773926  -999.250000
 2416.5000000  -999.250000  -999.250000 2.0902018547 2.0902018547 68.515151978 10.946216583  -999.250000 10.274381638 10.274381638 1351.4428711 1351.4428711  -999.250000
 2417.0000000  -999.250000  -999.250000 2.0755190849 2.0755190849 68.457237244 12.866564751  -999.250000 10.237625122 10.237625122 1330.3801270 1330.3801270  -999.250000
 2417.5000000  -999.250000  -999.250000 2.0891633034 2.0891633034 67.822067261 10.920240402  -999.250000 10.273721695 10.273721695 1325.2904053 1325.2904053  -999.250000
 2418.0000000  -999.250000  -999.250000 2.0725767612 2.0725767612 68.555244446 11.054256439  -999.250000 10.241756439 10.241756439 1359.6560059 1359.6560059  -999.250000
 2418.5000000  -999.250000  -999.250000 2.0859999657 2.0859999657 68.358688354 13.183653831  -999.250000 10.268461227 10.268461227 1359.6018066 1359.6018066  -999.250000
 2419.0000000  -999.250000  -999.250000 2.0758895874 2.0758895874 68.433670044 11.996768951  -999.250000 10.328186035 10.328186035 1370.7947998 1370.7947998  -999.250000
 2419.5000000  -999.250000  -999.250000 2.0889039040 2.0889039040 68.579750061 11.903278351  -999.250000 10.317032814 10.317032814 1363.2412109 1363.2412109  -999.250000
 2420.0000000  -999.250000  -999.250000 2.0842645168 2.0842645168 68.351600647 12.016293526  -999.250000 10.345471382 10.345471382 1408.8542480 1408.8542480  -999.250000
 2420.5000000  -999.250000  -999.250000 2.0918140411 2.0918140411 68.132286072 14.961384773  -999.250000 10.353197098 10.353197098 1391.2089844 1391.2089844  -999.250000
 2421.0000000  -999.250000  -999.250000 2.0906922817 2.0906922817 68.660865784 11.282211304  -999.250000 10.359480858 10.359480858 1385.6582031 1385.6582031  -999.250000
 2421.5000000  -999.250000  -999.250000 2.0802147388 2.0802147388 68.514511108 11.691713333  -999.250000 10.316899300 10.316899300 1377.3820801 1377.3820801  -999.250000
 2422.0000000  -999.250000  -999.250000 2.0948364735 2.0948364735 68.659034729 12.944448471  -999.250000 10.360570908 10.360570908 1365.9658203 1365.9658203  -999.250000
 2422.5000000  -999.250000  -999.250000 2.0786793232 2.0786793232 68.359802246 12.859153748  -999.250000 10.320057869 10.320057869 1335.7642822 1335.7642822  -999.250000
 2423.0000000  -999.250000  -999.250000 2.0780000687 2.0780000687 68.674819946 12.438032150  -999.250000 10.394701958 10.394701958 1323.8731689 1323.8731689  -999.250000
 2423.5000000  -999.250000  -999.250000 2.0838460922 2.0838460922 68.774543762 15.135077477  -999.250000 10.342615128 10.342615128 1271.2210693 1271.2210693  -999.250000
