# LAS format log file from PETREL
# Project units are specified as depth units
#==================================================================
~Version information
VERS.   2.0:
WRAP.   NO:
#==================================================================
~Well
STRT .m      0.0000000000 :
STOP .m      2974.0000000 :
STEP .m     0.50000000 :
NULL .        -999.250000 :
COMP.           : COMPANY
WELL.  AMR-1   : WELL
FLD.            : FIELD
LOC.            : LOCATION
SRVC.           : SERVICE COMPANY
DATE.  2022-11-03 20:42:11   : Log Export Date {yyyy-MM-dd HH:mm:ss}
PROV.           : PROVINCE
UWI.   11000075013701   : UNIQUE WELL ID
API.            : API NUMBER
#==================================================================
~Curve
DEPT .m                   : DEPTH
NEU .m3/m3                : NEU
NEUT .m3/m3               : NEUT
DENS .g/cm3               : DENS
DEN .g/cm3                : DEN
DTC_Avg2 .us/ft           : DTC_Avg2
GR .gAPI                  : GR
PORNET_NOV14 .m3/m3       : PORNET_NOV14
CALI .in                  : CALI
CAL .in                   : CAL
RESD .ohm.m               : RESD
RES_DEP .ohm.m            : RES_DEP
VCL_2014 ._               : VCL_2014
~Parameter
#==================================================================
~Ascii
# ...
 2568.0000000 0.0351715423 0.0351715423 2.1219999790 2.1219999790 67.868019104 11.384326935  -999.250000 10.472144127 10.472144127 1229.6439209 1229.6439209  -999.250000
 2568.5000000 0.0333998874 0.0333998874 2.1052770615 2.1052770615 67.856193542 10.016958237  -999.250000 10.404867172 10.404867172 1297.6191406 1297.6191406  -999.250000
 2569.0000000 0.0382617302 0.0382617302 2.0949552059 2.0949552059 68.533752441 12.436647415  -999.250000 10.414346695 10.414346695 1251.4982910 1251.4982910  -999.250000
 2569.5000000 0.0363325514 0.0363325514 2.0844712257 2.0844712257 67.482887268 12.473307610  -999.250000 10.501590729 10.501590729 1198.1538086 1198.1538086  -999.250000
 2570.0000000 0.0350830294 0.0350830294 2.0864119530 2.0864119530 67.834434509 14.191720009  -999.250000 10.501175880 10.501175880 1266.5156250 1266.5156250  -999.250000
 2570.5000000 0.0379638448 0.0379638448 2.0891921520 2.0891921520 67.813903809 13.385087013  -999.250000 10.576499939 10.576499939 1299.0324707 1299.0324707  -999.250000
 2571.0000000 0.0354380310 0.0354380310 2.0863926411 2.0863926411 68.135276794 13.343541145  -999.250000 10.560822487 10.560822487 1288.3695068 1288.3695068  -999.250000
 2571.5000000 0.0327676944 0.0327676944 2.0923590660 2.0923590660 67.718048096 14.639307022  -999.250000 10.565076828 10.565076828 1251.3045654 1251.3045654  -999.250000
 2572.0000000 0.0334110260 0.0334110260 2.1021282673 2.1021282673 68.199104309 13.283230782  -999.250000 10.543358803 10.543358803 1285.3647461 1285.3647461  -999.250000
 2572.5000000 0.0361363329 0.0361363329 2.0897853374 2.0897853374 67.824638367 11.412939072  -999.250000 10.476061821 10.476061821 1328.7232666 1328.7232666  -999.250000
 2573.0000000 0.0323681720 0.0323681720 2.0904037952 2.0904037952 67.836090088 10.464817047  -999.250000 10.532336235 10.532336235 1366.7209473 1366.7209473  -999.250000
 2573.5000000 0.0373637490 0.0373637490 2.0781762600 2.0781762600 68.247604370 10.952701569  -999.250000 10.463587761 10.463587761 1326.5738525 1326.5738525  -999.250000
 2574.0000000 0.0341061056 0.0341061056 2.0891153812 2.0891153812 68.338867188 11.705894470  -999.250000 10.484000206 10.484000206 1364.9722900 1364.9722900  -999.250000
 2574.5000000 0.0311760250 0.0311760250 2.0919551849 2.0919551849 67.823379517 11.534288406  -999.250000 10.508147240 10.508147240 1330.7764893 1330.7764893  -999.250000
 2575.0000000 0.0299187824 0.0299187824 2.0843493938 2.0843493938 67.926933289 13.559219360  -999.250000 10.595626831 10.595626831 1455.7247314 1455.7247314  -999.250000
 2575.5000000 0.0303018261 0.0303018261 2.0872116089 2.0872116089 68.191085815 11.825625420  -999.250000 10.691057205 10.691057205 1505.6289063 1505.6289063  -999.250000
 2576.0000000 0.0334019549 0.0334019549 2.0796730518 2.0796730518 68.046897888 13.954843521  -999.250000 10.648579597 10.648579597 1445.6922607 1445.6922607  -999.250000
 2576.5000000 0.0324075930 0.0324075930 2.0988316536 2.0988316536 67.751396179 14.338788986  -999.250000 10.701245308 10.701245308 1321.7261963 1321.7261963  -999.250000
 2577.0000000 0.0359207690 0.0359207690 2.1001410484 2.1001410484 68.001296997 14.609422684  -999.250000 10.721204758 10.721204758 1357.1663818 1357.1663818  -999.250000
 2577.5000000 0.0336608328 0.0336608328 2.0953543186 2.0953543186 67.777854919 14.565917015  -999.250000 10.714625359 10.714625359 1422.4916992 1422.4916992  -999.250000
 2578.0000000 0.0347568505 0.0347568505 2.0819327831 2.0819327831 67.974647522 12.258302689  -999.250000 10.766407013 10.766407013 1344.9595947 1344.9595947  -999.250000
 2578.5000000 0.0305945855 0.0305945855 2.0893332958 2.0893332958 67.619918823 11.684916496  -999.250000 10.811291695 10.811291695 1269.0953369 1269.0953369  -999.250000
 2579.0000000 0.0259512030 0.0259512030 2.1100046635 2.1100046635 67.819908142 10.544846535  -999.250000 10.792423248 10.792423248 1264.4624023 1264.4624023  -999.250000
 2579.5000000 0.0292747431 0.0292747431 2.1077051163 2.1077051163 67.446037292 10.650403976  -999.250000 10.770737648 10.770737648 1271.3311768 1271.3311768  -999.250000
 2580.0000000 0.0348913595 0.0348913595 2.0964622498 2.0964622498 67.980888367 11.384219170  -999.250000 10.691849709 10.691849709 1276.7264404 1276.7264404  -999.250000
 2580.5000000 0.0371862017 0.0371862017 2.1073205471 2.1073205471 67.351821899 12.109127998  -999.250000 10.665942192 10.665942192 1191.8447266 1191.8447266  -999.250000
 2581.0000000 0.0360407047 0.0360407047 2.1098685265 2.1098685265 67.555015564 11.545624733  -999.250000 10.707871437 10.707871437 1094.4602051 1094.4602051  -999.250000
 2581.5000000 0.0303050950 0.0303050950 2.1399040222 2.1399040222 67.764762878 10.440836906  -999.250000 10.714119911 10.714119911 1098.3228760 1098.3228760  -999.250000
 2582.0000000 0.0332921781 0.0332921781 2.1349694729 2.1349694729 67.943542480 11.408224106  -999.250000 10.633029938 10.633029938 1281.4583740 1281.4583740  -999.250000
 2582.5000000 0.0329969227 0.0329969227 2.1182308197 2.1182308197 68.193229675 12.633461952  -999.250000 10.658692360 10.658692360 1297.4365234 1297.4365234  -999.250000
 2583.0000000 0.0340832211 0.0340832211 2.0962677002 2.0962677002 68.288932800 15.334957123  -999.250000 10.671071053 10.671071053 1305.7041016 1305.7041016  -999.250000
 2583.5000000 0.0380796492 0.0380796492 2.0941987038 2.0941987038 67.884887695 17.700012207  -999.250000 10.709383965 10.709383965 1352.6268311 1352.6268311  -999.250000
 2584.0000000 0.0368028171 0.0368028171 2.0940959454 2.0940959454 68.437576294 15.266989708  -999.250000 10.637380600 10.637380600 1467.3803711 1467.3803711  -999.250000
 2584.5000000 0.0361107849 0.0361107849 2.0886619091 2.0886619091 68.001289368 12.423002243  -999.250000 10.750546455 10.750546455 1440.9487305 1440.9487305  -999.250000
 2585.0000000 0.0300088469 0.0300088469 2.0780577660 2.0780577660 68.407592773 12.505096436  -999.250000 10.769327164 10.769327164 1535.3533936 1535.3533936  -999.250000
 2585.5000000 0.0350503996 0.0350503996 2.0882179737 2.0882179737 67.475112915 13.554789543  -999.250000 10.849212646 10.849212646 1457.4592285 1457.4592285  -999.250000
 2586.0000000 0.0351288803 0.0351288803 2.0845439434 2.0845439434 67.817420959 13.395480156  -999.250000 10.869959831 10.869959831 1347.0400391 1347.0400391  -999.250000
 2586.5000000 0.0370407663 0.0370407663 2.1092820168 2.1092820168 68.523895264 12.753881454  -999.250000 10.780858994 10.780858994 1509.2698975 1509.2698975  -999.250000
 2587.0000000 0.0334225819 0.0334225819 2.1061458588 2.1061458588 68.135375977 13.743638992  -999.250000 10.745197296 10.745197296 1592.0063477 1592.0063477  -999.250000
 2587.5000000 0.0314026922 0.0314026922 2.0797691345 2.0797691345 67.944808960 13.097846031  -999.250000 10.771307945 10.771307945 1574.6345215 1574.6345215  -999.250000
 2588.0000000 0.0322879851 0.0322879851 2.0921535492 2.0921535492 67.771179199 12.683674812  -999.250000 10.772088051 10.772088051 1560.9523926 1560.9523926  -999.250000
 2588.5000000 0.0351410098 0.0351410098 2.1054568291 2.1054568291 68.035278320 11.366774559  -999.250000 10.790720940 10.790720940 1571.7114258 1571.7114258  -999.250000
 2589.0000000 0.0352629460 0.0352629460 2.0906763077 2.0906763077 67.959907532 12.623516083  -999.250000 10.823545456 10.823545456 1620.7707520 1620.7707520  -999.250000
 2589.5000000 0.0327809453 0.0327809453 2.0764086246 2.0764086246 67.452308655 12.653631210  -999.250000 10.771800041 10.771800041 1568.9511719 1568.9511719  -999.250000
 2590.0000000 0.0335563682 0.0335563682 2.0907518864 2.0907518864 67.785598755 13.139529228  -999.250000 10.871760368 10.871760368 1551.5734863 1551.5734863  -999.250000
 2590.5000000 0.0332660787 0.0332660787 2.1001598835 2.1001598835 67.403770447 9.8323602676  -999.250000 10.814536095 10.814536095 1466.8255615 1466.8255615  -999.250000
 2591.0000000 0.0341106243 0.0341106243 2.1013126373 2.1013126373 67.812561035 10.929749489  -999.250000 10.916624069 10.916624069 1370.0822754 1370.0822754  -999.250000
 2591.5000000 0.0336147770 0.0336147770 2.1337788105 2.1337788105 67.904884338 11.728250504  -999.250000 10.804449081 10.804449081 1481.2399902 1481.2399902  -999.250000
