# LAS format log file from PETREL
# Project units are specified as depth units
#==================================================================
~Version information
VERS.   2.0:
WRAP.   NO:
#==================================================================
~Well
STRT .m      0.0000000000 :
STOP .m      2974.0000000 :
STEP .m     0.50000000 :
NULL .        -999.250000 :
COMP.           : COMPANY
WELL.  AMR-1   : WELL
FLD.            : FIELD
LOC.            : LOCATION
SRVC.           : SERVICE COMPANY
DATE.  2022-11-03 20:42:11   : Log Export Date {yyyy-MM-dd HH:mm:ss}
PROV.           : PROVINCE
UWI.   11000075013701   : UNIQUE WELL ID
API.            : API NUMBER
#==================================================================
~Curve
DEPT .m                   : DEPTH
NEU .m3/m3                : NEU
NEUT .m3/m3               : NEUT
DENS .g/cm3               : DENS
DEN .g/cm3                : DEN
DTC_Avg2 .us/ft           : DTC_Avg2
GR .gAPI                  : GR
PORNET_NOV14 .m3/m3       : PORNET_NOV14
CALI .in                  : CALI
CAL .in                   : CAL
RESD .ohm.m               : RESD
RES_DEP .ohm.m            : RES_DEP
VCL_2014 ._               : VCL_2014
~Parameter
#==================================================================
~Ascii
# ...
 1872.0000000  -999.250000  -999.250000 2.0672821999 2.0672821999 69.005935669 11.429814339  -999.250000 10.173788071 10.173788071 1987.5812988 1987.5812988  -999.250000
 1872.5000000  -999.250000  -999.250000 2.0719630718 2.0719630718 68.893600464 10.383110046  -999.250000 10.172272682 10.172272682 1976.2895508 1976.2895508  -999.250000
 1873.0000000  -999.250000  -999.250000 2.0701849461 2.0701849461 68.740386963 9.0910024643  -999.250000 10.162211418 10.162211418 1978.9409180 1978.9409180  -999.250000
 1873.5000000  -999.250000  -999.250000 2.0650792122 2.0650792122 68.490409851 10.334402084  -999.250000 10.200217247 10.200217247 2001.5620117 2001.5620117  -999.250000
 1874.0000000  -999.250000  -999.250000 2.0697066784 2.0697066784 68.571105957 10.479362488  -999.250000 10.260174751 10.260174751 1965.8751221 1965.8751221  -999.250000
 1874.5000000  -999.250000  -999.250000 2.0777373314 2.0777373314 69.083061218 10.535414696  -999.250000 10.300949097 10.300949097 1864.2418213 1864.2418213  -999.250000
 1875.0000000  -999.250000  -999.250000 2.0794491768 2.0794491768 68.909484863 10.208020210  -999.250000 10.320898056 10.320898056 1797.4091797 1797.4091797  -999.250000
 1875.5000000  -999.250000  -999.250000 2.0695817471 2.0695817471 68.754875183 10.971930504  -999.250000 10.359884262 10.359884262 1905.3707275 1905.3707275  -999.250000
 1876.0000000  -999.250000  -999.250000 2.0741539001 2.0741539001 68.826919556 9.7142114639  -999.250000 10.402403831 10.402403831 1904.5737305 1904.5737305  -999.250000
 1876.5000000  -999.250000  -999.250000 2.0710082054 2.0710082054 68.540412903 11.459571838  -999.250000 10.415984154 10.415984154 1848.1781006 1848.1781006  -999.250000
 1877.0000000  -999.250000  -999.250000 2.0817270279 2.0817270279 68.642654419 10.131825447  -999.250000 10.423999786 10.423999786 1737.1186523 1737.1186523  -999.250000
 1877.5000000  -999.250000  -999.250000 2.0681979656 2.0681979656 68.722496033 9.8187589645  -999.250000 10.435214996 10.435214996 1611.6860352 1611.6860352  -999.250000
 1878.0000000  -999.250000  -999.250000 2.0958445072 2.0958445072 68.519523621 11.399323463  -999.250000 10.451844215 10.451844215 1492.4471436 1492.4471436  -999.250000
 1878.5000000  -999.250000  -999.250000 2.0824229717 2.0824229717 68.288696289 9.9196538925  -999.250000 10.456000328 10.456000328 1410.0133057 1410.0133057  -999.250000
 1879.0000000  -999.250000  -999.250000 2.0822074413 2.0822074413 68.737670898 9.0014905930  -999.250000 10.456000328 10.456000328 1440.3496094 1440.3496094  -999.250000
 1879.5000000  -999.250000  -999.250000 2.0863227844 2.0863227844 68.846145630 10.023281097  -999.250000 10.447999954 10.447999954 1533.0522461 1533.0522461  -999.250000
 1880.0000000  -999.250000  -999.250000 2.0809583664 2.0809583664 68.520294189 10.075708389  -999.250000 10.447999954 10.447999954 1533.3421631 1533.3421631  -999.250000
 1880.5000000  -999.250000  -999.250000 2.0792834759 2.0792834759 68.283683777 9.8507385254  -999.250000 10.444000244 10.444000244 1463.1903076 1463.1903076  -999.250000
 1881.0000000  -999.250000  -999.250000 2.0664019585 2.0664019585 68.563827515 11.152750969  -999.250000 10.441402435 10.441402435 1425.5872803 1425.5872803  -999.250000
 1881.5000000  -999.250000  -999.250000 2.0697979927 2.0697979927 69.059669495 9.3710165024  -999.250000 10.387790680 10.387790680 1395.3529053 1395.3529053  -999.250000
 1882.0000000  -999.250000  -999.250000 2.0714282990 2.0714282990 68.916175842 9.7684373856  -999.250000 10.348591805 10.348591805 1414.4205322 1414.4205322  -999.250000
 1882.5000000  -999.250000  -999.250000 2.0778110027 2.0778110027 68.424140930 9.0461416245  -999.250000 10.345086098 10.345086098 1352.0880127 1352.0880127  -999.250000
 1883.0000000  -999.250000  -999.250000 2.0780711174 2.0780711174 68.306076050 8.1355123520  -999.250000 10.365214348 10.365214348 1371.9578857 1371.9578857  -999.250000
 1883.5000000  -999.250000  -999.250000 2.0648372173 2.0648372173 68.397705078 10.648075104  -999.250000 10.407782555 10.407782555 1422.5828857 1422.5828857  -999.250000
 1884.0000000  -999.250000  -999.250000 2.0774097443 2.0774097443 68.220626831 10.828115463  -999.250000 10.443049431 10.443049431 1357.4572754 1357.4572754  -999.250000
 1884.5000000  -999.250000  -999.250000 2.0901153088 2.0901153088 68.090049744 10.747634888  -999.250000 10.456000328 10.456000328 1378.2076416 1378.2076416  -999.250000
 1885.0000000  -999.250000  -999.250000 2.0791296959 2.0791296959 68.314361572 11.292669296  -999.250000 10.441571236 10.441571236 1401.3892822 1401.3892822  -999.250000
 1885.5000000  -999.250000  -999.250000 2.0917637348 2.0917637348 68.638206482 9.2366905212  -999.250000 10.354337692 10.354337692 1425.2657471 1425.2657471  -999.250000
 1886.0000000  -999.250000  -999.250000 2.0986108780 2.0986108780 68.699974060 11.272321701  -999.250000 10.340000153 10.340000153 1402.0400391 1402.0400391  -999.250000
 1886.5000000  -999.250000  -999.250000 2.0990834236 2.0990834236 68.540817261 9.3899612427  -999.250000 10.321646690 10.321646690 1419.3751221 1419.3751221  -999.250000
 1887.0000000  -999.250000  -999.250000 2.0813314915 2.0813314915 68.496658325 9.2503728867  -999.250000 10.250435829 10.250435829 1373.5184326 1373.5184326  -999.250000
 1887.5000000  -999.250000  -999.250000 2.0781466961 2.0781466961 68.565856934 11.161365509  -999.250000 10.251171112 10.251171112 1423.0000000 1423.0000000  -999.250000
 1888.0000000  -999.250000  -999.250000 2.0714843273 2.0714843273 68.552551270 9.1875066757  -999.250000 10.246742249 10.246742249 1428.8614502 1428.8614502  -999.250000
 1888.5000000  -999.250000  -999.250000 2.0769295692 2.0769295692 68.211227417 9.7685451508  -999.250000 10.234535217 10.234535217 1390.0877686 1390.0877686  -999.250000
 1889.0000000  -999.250000  -999.250000 2.0891153812 2.0891153812 68.069999695 10.615667343  -999.250000 10.232000351 10.232000351 1448.4903564 1448.4903564  -999.250000
 1889.5000000  -999.250000  -999.250000 2.0959415436 2.0959415436 68.103347778 10.193720818  -999.250000 10.233881950 10.233881950 1386.9201660 1386.9201660  -999.250000
 1890.0000000  -999.250000  -999.250000 2.0910000801 2.0910000801 68.061050415 10.706661224  -999.250000 10.238724709 10.238724709 1396.0795898 1396.0795898  -999.250000
 1890.5000000  -999.250000  -999.250000 2.0907115936 2.0907115936 68.170104980 10.064990044  -999.250000 10.243856430 10.243856430 1406.8963623 1406.8963623  -999.250000
 1891.0000000  -999.250000  -999.250000 2.1048638821 2.1048638821 68.321540833 11.249227524  -999.250000 10.236727715 10.236727715 1396.9531250 1396.9531250  -999.250000
 1891.5000000  -999.250000  -999.250000 2.0985825062 2.0985825062 67.905082703 10.855255127  -999.250000 10.234834671 10.234834671 1394.5809326 1394.5809326  -999.250000
 1892.0000000  -999.250000  -999.250000 2.0935091972 2.0935091972 68.176933289 10.765300751  -999.250000 10.248887062 10.248887062 1347.5841064 1347.5841064  -999.250000
 1892.5000000  -999.250000  -999.250000 2.0891249180 2.0891249180 68.440147400 10.039708138  -999.250000 10.268917084 10.268917084 1338.4267578 1338.4267578  -999.250000
 1893.0000000  -999.250000  -999.250000 2.0883750916 2.0883750916 68.380165100 11.276865005  -999.250000 10.281038284 10.281038284 1338.1810303 1338.1810303  -999.250000
 1893.5000000  -999.250000  -999.250000 2.1119494438 2.1119494438 68.195991516 10.883274078  -999.250000 10.285377502 10.285377502 1384.0262451 1384.0262451  -999.250000
 1894.0000000  -999.250000  -999.250000 2.1185357571 2.1185357571 68.209999084 10.231087685  -999.250000 10.276070595 10.276070595 1384.8448486 1384.8448486  -999.250000
 1894.5000000  -999.250000  -999.250000 2.1092824936 2.1092824936 68.203468323 11.093101501  -999.250000 10.259590149 10.259590149 1384.5467529 1384.5467529  -999.250000
 1895.0000000  -999.250000  -999.250000 2.1141488552 2.1141488552 68.004608154 10.403206825  -999.250000 10.260000229 10.260000229 1382.4152832 1382.4152832  -999.250000
 1895.5000000  -999.250000  -999.250000 2.1416282654 2.1416282654 66.926132202 11.663606644  -999.250000 10.271986008 10.271986008 1343.9514160 1343.9514160  -999.250000
