# LAS format log file from PETREL
# Project units are specified as depth units
#==================================================================
~Version information
VERS.   2.0:
WRAP.   NO:
#==================================================================
~Well
STRT .m      0.0000000000 :
STOP .m      2974.0000000 :
STEP .m     0.50000000 :
NULL .        -999.250000 :
COMP.           : COMPANY
WELL.  AMR-1   : WELL
FLD.            : FIELD
LOC.            : LOCATION
SRVC.           : SERVICE COMPANY
DATE.  2022-11-03 20:42:11   : Log Export Date {yyyy-MM-dd HH:mm:ss}
PROV.           : PROVINCE
UWI.   11000075013701   : UNIQUE WELL ID
API.            : API NUMBER
#==================================================================
~Curve
DEPT .m                   : DEPTH
NEU .m3/m3                : NEU
NEUT .m3/m3               : NEUT
DENS .g/cm3               : DENS
DEN .g/cm3                : DEN
DTC_Avg2 .us/ft           : DTC_Avg2
GR .gAPI                  : GR
PORNET_NOV14 .m3/m3       : PORNET_NOV14
CALI .in                  : CALI
CAL .in                   : CAL
RESD .ohm.m               : RESD
RES_DEP .ohm.m            : RES_DEP
VCL_2014 ._               : VCL_2014
~Parameter
#==================================================================
~Ascii
# ...
 2928.0000000  -999.250000  -999.250000 2.4892368317 2.4892368317 77.160942078 43.446865082 0.1018881425 6.4286065102 6.4286065102 4.8360977173 4.8360977173 0.1644047648
 2928.5000000  -999.250000  -999.250000 2.5013172626 2.5013172626 77.087791443 42.645908356 0.0957916752 6.4261589050 6.4261589050 5.2811727524 5.2811727524 0.1587472111
 2929.0000000  -999.250000  -999.250000 2.4958333969 2.4958333969 77.299919128 36.124259949 0.0959207565 6.3871989250 6.3871989250 5.5145835876 5.5145835876 0.1115624532
 2929.5000000  -999.250000  -999.250000 2.4416441917 2.4416441917 80.073287964 38.072017670 0.1233126372 6.3887629509 6.3887629509 5.5688204765 5.5688204765 0.1317626983
 2930.0000000  -999.250000  -999.250000 2.5430912971 2.5430912971 72.972129822 44.025543213 0.0779357702 6.4051647186 6.4051647186 6.8298225403 6.8298225403 0.1751582474
 2930.5000000  -999.250000  -999.250000 2.5509681702 2.5509681702 70.268890381 41.409397125 0.0726820081 6.4050064087 6.4050064087 5.5903186798 5.5903186798 0.1630888432
 2931.0000000  -999.250000  -999.250000 2.5175817013 2.5175817013 74.065902710 53.307975769 0.0945406333 6.4038653374 6.4038653374 4.9013028145 4.9013028145 0.2541238666
 2931.5000000  -999.250000  -999.250000 2.4239742756 2.4239742756 78.895896912 41.222434998 0.1330382973 6.3918719292 6.3918719292 4.7614617348 4.7614617348 0.1488204300
 2932.0000000  -999.250000  -999.250000 2.3433616161 2.3433616161 84.743843079 34.966564178 0.1692093015 6.3901548386 6.3901548386 4.6113452911 4.6113452911 0.1017983332
 2932.5000000  -999.250000  -999.250000 2.3843679428 2.3843679428 82.502197266 37.109607697 0.1517999619 6.3827471733 6.3827471733 4.6388878822 4.6388878822 0.1252536625
 2933.0000000  -999.250000  -999.250000 2.3775479794 2.3775479794 84.536056519 36.686386108 0.1550441384 6.3790001869 6.3790001869 4.7061953545 4.7061953545 0.1234518215
 2933.5000000  -999.250000  -999.250000 2.5063750744 2.5063750744 78.286064148 43.319061279 0.0954626426 6.3806877136 6.3806877136 5.7435622215 5.7435622215 0.1806600988
 2934.0000000  -999.250000  -999.250000 2.4994800091 2.4994800091 72.819503784 38.535274506 0.0948214456 6.3849363327 6.3849363327 6.0494880676 6.0494880676 0.1393034905
 2934.5000000  -999.250000  -999.250000 2.4997489452 2.4997489452 73.067695618 37.416309357 0.0951491222 6.4347376823 6.4347376823 6.5277166367 6.5277166367 0.1291678399
 2935.0000000  -999.250000  -999.250000 2.5081827641 2.5081827641 70.185195923 34.572910309 0.0896896124 6.4614086151 6.4614086151 6.5002436638 6.5002436638 0.1075429097
 2935.5000000  -999.250000  -999.250000 2.4838109016 2.4838109016 69.167449951 35.756057739 0.0834355876 6.4519457817 6.4519457817 6.4630508423 6.4630508423 0.1217411160
 2936.0000000  -999.250000  -999.250000 2.5341825485 2.5341825485 68.927047729 41.974765778 0.0779701173 6.4464521408 6.4464521408 6.7126393318 6.7126393318 0.1684458107
 2936.5000000  -999.250000  -999.250000 2.5560832024 2.5560832024 69.290473938 43.119567871 0.0704747066 6.4387278557 6.4387278557 8.6810817719 8.6810817719 0.1768050194
 2937.0000000  -999.250000  -999.250000 2.5739228725 2.5739228725 68.430000305 36.225807190 0.0577629134 6.4200768471 6.4200768471 7.1547694206 7.1547694206 0.1223608255
 2937.5000000  -999.250000  -999.250000 2.5211827755 2.5211827755 72.026245117 38.665054321 0.0841451213 6.4076056480 6.4076056480 5.6525254250 5.6525254250 0.1454166025
 2938.0000000  -999.250000  -999.250000 2.5462274551 2.5462274551 72.717041016 35.111198425 0.0711529776 6.4057116508 6.4057116508 7.1687340736 7.1687340736 0.1136130393
 2938.5000000  -999.250000  -999.250000 2.5455601215 2.5455601215 70.474235535 29.311279297 0.0639339983 6.4134321213 6.4134321213 8.5025520325 8.5025520325 0.0704367757
 2939.0000000  -999.250000  -999.250000 2.4963364601 2.4963364601 70.116218567 31.009424210 0.0880260766 6.4144454002 6.4144454002 7.9028396606 7.9028396606 0.0862858444
 2939.5000000  -999.250000  -999.250000 2.5092692375 2.5092692375 71.962654114 31.033077240 0.0825162753 6.3860578537 6.3860578537 7.9038076401 7.9038076401 0.0905036256
 2940.0000000  -999.250000  -999.250000 2.5465898514 2.5465898514 70.800048828 36.471775055 0.0719122738 6.3996906281 6.3996906281 7.9298830032 7.9298830032 0.1316508502
 2940.5000000  -999.250000  -999.250000 2.5357615948 2.5357615948 71.481178284 35.534252167 0.0772227719 6.4063811302 6.4063811302 6.2924304008 6.2924304008 0.1233320534
 2941.0000000  -999.250000  -999.250000 2.5008943081 2.5008943081 71.770622253 34.635101318 0.0930503160 6.3827948570 6.3827948570 6.4550671577 6.4550671577 0.1155657470
 2941.5000000  -999.250000  -999.250000 2.5736217499 2.5736217499 69.167480469 31.273500443 0.0505909808 6.3799057007 6.3799057007 10.085304260 10.085304260 0.0939908922
 2942.0000000  -999.250000  -999.250000 2.6295385361 2.6295385361 65.684234619 34.719692230  -999.250000 6.4336152077 6.4336152077 16.040845871 16.040845871 0.1184215471
 2942.5000000  -999.250000  -999.250000 2.6148335934 2.6148335934 63.523334503 37.417530060  -999.250000 6.4274849892 6.4274849892 14.029996872 14.029996872 0.1566193998
 2943.0000000  -999.250000  -999.250000 2.6916248798 2.6916248798 70.092864990 88.627388000  -999.250000 6.4411683083 6.4411683083 5.0798797607 5.0798797607  -999.250000
 2943.5000000  -999.250000  -999.250000 2.6948237419 2.6948237419 82.900772095 123.57909393  -999.250000 6.4989614487 6.4989614487 3.9675319195 3.9675319195  -999.250000
 2944.0000000  -999.250000  -999.250000 2.6808302402 2.6808302402 80.074050903 117.85698700  -999.250000 6.6467561722 6.6467561722 4.3857579231 4.3857579231  -999.250000
 2944.5000000  -999.250000  -999.250000 2.7019999027 2.7019999027 79.197090149 117.81551361  -999.250000 6.7557744980 6.7557744980 4.2879614830 4.2879614830  -999.250000
 2945.0000000  -999.250000  -999.250000 2.7159678936 2.7159678936 81.183547974 123.55223846  -999.250000 6.7858843803 6.7858843803 4.2093205452 4.2093205452  -999.250000
 2945.5000000  -999.250000  -999.250000 2.7052981853 2.7052981853 81.472251892 132.98957825  -999.250000 6.7840094566 6.7840094566 3.9922308922 3.9922308922  -999.250000
 2946.0000000  -999.250000  -999.250000 2.6874165535 2.6874165535 81.139793396 127.56008148  -999.250000 6.7160830498 6.7160830498 4.6151666641 4.6151666641  -999.250000
 2946.5000000  -999.250000  -999.250000 2.7359104156 2.7359104156 77.136451721 116.16593170  -999.250000 6.7109999657 6.7109999657 4.7617840767 4.7617840767  -999.250000
 2947.0000000  -999.250000  -999.250000 2.7224583626 2.7224583626 79.680519104 131.41664124  -999.250000 6.7071666718 6.7071666718 4.3512706757 4.3512706757  -999.250000
 2947.5000000  -999.250000  -999.250000 2.7025127411 2.7025127411 81.227722168 123.74031067  -999.250000 6.7595129013 6.7595129013 4.9161024094 4.9161024094  -999.250000
 2948.0000000  -999.250000  -999.250000 2.7006731033 2.7006731033 75.564460754 107.68728638  -999.250000 6.7380194664 6.7380194664 6.4045577049 6.4045577049  -999.250000
 2948.5000000  -999.250000  -999.250000 2.6813366413 2.6813366413 71.232551575 105.17762756  -999.250000 6.7383365631 6.7383365631 8.2754650116 8.2754650116  -999.250000
 2949.0000000  -999.250000  -999.250000 2.6814520359 2.6814520359 70.368797302 99.653182983  -999.250000 6.7242693901 6.7242693901 9.2023944855 9.2023944855  -999.250000
 2949.5000000  -999.250000  -999.250000 2.6844453812 2.6844453812 69.489944458 110.23866272  -999.250000 6.7066507339 6.7066507339 9.8121843338 9.8121843338  -999.250000
 2950.0000000  -999.250000  -999.250000 2.6830897331 2.6830897331 72.705505371 152.39193726  -999.250000 6.7394165993 6.7394165993 9.5522441864 9.5522441864  -999.250000
 2950.5000000  -999.250000  -999.250000 2.6930000782 2.6930000782 74.490356445 135.96615601  -999.250000 6.7298893929 6.7298893929 10.790961266 10.790961266  -999.250000
 2951.0000000  -999.250000  -999.250000 2.6602356434 2.6602356434 74.929931641 141.41174316  -999.250000 6.7699646950 6.7699646950 13.479008675 13.479008675  -999.250000
 2951.5000000  -999.250000  -999.250000 2.6447980404 2.6447980404 75.168457031 127.24851227  -999.250000 6.6868944168 6.6868944168 14.095355034 14.095355034  -999.250000
