# LAS format log file from PETREL
# Project units are specified as depth units
#==================================================================
~Version information
VERS.   2.0:
WRAP.   NO:
#==================================================================
~Well
STRT .m      0.0000000000 :
STOP .m      2974.0000000 :
STEP .m     0.50000000 :
NULL .        -999.250000 :
COMP.           : COMPANY
WELL.  AMR-1   : WELL
FLD.            : FIELD
LOC.            : LOCATION
SRVC.           : SERVICE COMPANY
DATE.  2022-11-03 20:42:11   : Log Export Date {yyyy-MM-dd HH:mm:ss}
PROV.           : PROVINCE
UWI.   11000075013701   : UNIQUE WELL ID
API.            : API NUMBER
#==================================================================
~Curve
DEPT .m                   : DEPTH
NEU .m3/m3                : NEU
NEUT .m3/m3               : NEUT
DENS .g/cm3               : DENS
DEN .g/cm3                : DEN
DTC_Avg2 .us/ft           : DTC_Avg2
GR .gAPI                  : GR
PORNET_NOV14 .m3/m3       : PORNET_NOV14
CALI .in                  : CALI
CAL .in                   : CAL
RESD .ohm.m               : RESD
RES_DEP .ohm.m            : RES_DEP
VCL_2014 ._               : VCL_2014
~Parameter
#==================================================================
~Ascii
# ...
 1704.0000000  -999.250000  -999.250000 2.5408198833 2.5408198833 91.774765015 47.911113739  -999.250000 10.264410019 10.264410019 1.5224357843 1.5224357843  -999.250000
 1704.5000000  -999.250000  -999.250000 2.5715320110 2.5715320110 91.521202087 51.106082916  -999.250000 10.270766258 10.270766258 1.5185990334 1.5185990334  -999.250000
 1705.0000000  -999.250000  -999.250000 2.5743789673 2.5743789673 93.633102417 51.249950409  -999.250000 10.267006874 10.267006874 1.5147615671 1.5147615671  -999.250000
 1705.5000000  -999.250000  -999.250000 2.5890054703 2.5890054703 92.251167297 55.593429565  -999.250000 10.268110275 10.268110275 1.5109249353 1.5109249353  -999.250000
 1706.0000000  -999.250000  -999.250000 2.5690648556 2.5690648556 93.038139343 55.953533173  -999.250000 10.272000313 10.272000313 1.5070875883 1.5070875883  -999.250000
 1706.5000000  -999.250000  -999.250000 2.5510897636 2.5510897636 92.559158325 49.020889282  -999.250000 10.275012970 10.275012970 1.5032508373 1.5032508373  -999.250000
 1707.0000000  -999.250000  -999.250000 2.5374863148 2.5374863148 92.973625183 51.151550293  -999.250000 10.272850037 10.272850037 1.4994132519 1.4994132519  -999.250000
 1707.5000000  -999.250000  -999.250000 2.5678172112 2.5678172112 90.391693115 50.625804901  -999.250000 10.288136482 10.288136482 1.4955767393 1.4955767393  -999.250000
 1708.0000000  -999.250000  -999.250000 2.5910656452 2.5910656452 87.970001221 43.139110565  -999.250000 10.302698135 10.302698135 1.4917395115 1.4917395115  -999.250000
 1708.5000000  -999.250000  -999.250000 2.5676298141 2.5676298141 87.468673706 47.637420654  -999.250000 10.306518555 10.306518555 1.4879025221 1.4879025221  -999.250000
 1709.0000000  -999.250000  -999.250000 2.5574445724 2.5574445724 89.025238037 44.936668396  -999.250000 10.307999611 10.307999611 1.4840650558 1.4840650558  -999.250000
 1709.5000000  -999.250000  -999.250000 2.5771067142 2.5771067142 89.503578186 43.073150635  -999.250000 10.315999985 10.315999985 1.4802284241 1.4802284241  -999.250000
 1710.0000000  -999.250000  -999.250000 2.5619447231 2.5619447231 87.048156738 39.615673065  -999.250000 10.315999985 10.315999985 1.4763914347 1.4763914347  -999.250000
 1710.5000000  -999.250000  -999.250000 2.5722851753 2.5722851753 90.516387939 46.297603607  -999.250000 10.315999985 10.315999985 1.4725542068 1.4725542068  -999.250000
 1711.0000000  -999.250000  -999.250000 2.5846900940 2.5846900940 91.725593567 47.996498108  -999.250000 10.316137314 10.316137314 1.4687167406 1.4687167406  -999.250000
 1711.5000000  -999.250000  -999.250000 2.5522043705 2.5522043705 92.413795471 50.161922455  -999.250000 10.324000359 10.324000359 1.4648801088 1.4648801088  -999.250000
 1712.0000000  -999.250000  -999.250000 2.5706388950 2.5706388950 94.399169922 50.994327545  -999.250000 10.320595741 10.320595741 1.4610432386 1.4610432386  -999.250000
 1712.5000000  -999.250000  -999.250000 2.5692725182 2.5692725182 95.367767334 46.530349731  -999.250000 10.320369720 10.320369720 1.4572060108 1.4572060108  -999.250000
 1713.0000000  -999.250000  -999.250000 2.5805773735 2.5805773735 89.260627747 46.029739380  -999.250000 10.328000069 10.328000069 1.4533686638 1.4533686638  -999.250000
 1713.5000000  -999.250000  -999.250000 2.5913147926 2.5913147926 88.140937805 45.754264832  -999.250000 10.330314636 10.330314636 1.4495319128 1.4495319128  -999.250000
 1714.0000000  -999.250000  -999.250000 2.5899672508 2.5899672508 85.983596802 45.260158539  -999.250000 10.324281693 10.324281693 1.4456950426 1.4456950426  -999.250000
 1714.5000000  -999.250000  -999.250000 2.5499999523 2.5499999523 86.129997253 45.540000916  -999.250000 10.328000069 10.328000069 1.4418578148 1.4418578148  -999.250000
 1715.0000000  -999.250000  -999.250000 2.5720000267 2.5720000267 88.126777649 48.244010925  -999.250000 10.328561783 10.328561783 1.4380204678 1.4380204678  -999.250000
 1715.5000000  -999.250000  -999.250000 2.5521235466 2.5521235466 90.445831299 43.691452026  -999.250000 10.327438354 10.327438354 1.4341835976 1.4341835976  -999.250000
 1716.0000000  -999.250000  -999.250000 2.5778422356 2.5778422356 87.145118713 49.195182800  -999.250000 10.328369141 10.328369141 1.4303468466 1.4303468466  -999.250000
 1716.5000000  -999.250000  -999.250000 2.5521235466 2.5521235466 92.674461365 48.895721436  -999.250000 10.343494415 10.343494415 1.4265094995 1.4265094995  -999.250000
 1717.0000000  -999.250000  -999.250000 2.5762345791 2.5762345791 89.488830566 41.805587769  -999.250000 10.360830307 10.360830307 1.4226723909 1.4226723909  -999.250000
 1717.5000000  -999.250000  -999.250000 2.5992596149 2.5992596149 88.376892090 42.783138275  -999.250000 10.375314713 10.375314713 1.4188354015 1.4188354015  -999.250000
 1718.0000000  -999.250000  -999.250000 2.5803785324 2.5803785324 87.437866211 44.684700012  -999.250000 10.376000404 10.376000404 1.4149987698 1.4149987698  -999.250000
 1718.5000000  -999.250000  -999.250000 2.5322210789 2.5322210789 92.827613831 50.675403595  -999.250000 10.385468483 10.385468483 1.4111613035 1.4111613035  -999.250000
 1719.0000000  -999.250000  -999.250000 2.5599448681 2.5599448681 95.510940552 51.938686371  -999.250000 10.404000282 10.404000282 1.4073241949 1.4073241949  -999.250000
 1719.5000000  -999.250000  -999.250000 2.5321488380 2.5321488380 98.488372803 56.423969269  -999.250000 10.411042213 10.411042213 1.4034870863 1.4034870863  -999.250000
 1720.0000000  -999.250000  -999.250000 2.5600216389 2.5600216389 96.917198181 53.053134918  -999.250000 10.416000366 10.416000366 1.3996504545 1.3996504545  -999.250000
 1720.5000000  -999.250000  -999.250000 2.5336296558 2.5336296558 96.997085571 53.094715118  -999.250000 10.420370102 10.420370102 1.3958129883 1.3958129883  -999.250000
 1721.0000000  -999.250000  -999.250000 2.5226981640 2.5226981640 98.203849792 62.835472107  -999.250000 10.425301552 10.425301552 1.3919759989 1.3919759989  -999.250000
 1721.5000000  -999.250000  -999.250000 2.5084767342 2.5084767342 101.70367432 61.395706177  -999.250000 10.435591698 10.435591698 1.3881387711 1.3881387711  -999.250000
 1722.0000000  -999.250000  -999.250000 2.5115137100 2.5115137100 100.89157867 64.484268188  -999.250000 10.459212303 10.459212303 1.3843022585 1.3843022585  -999.250000
 1722.5000000  -999.250000  -999.250000 2.5115191936 2.5115191936 104.19918823 64.159599304  -999.250000 10.463999748 10.463999748 1.3804646730 1.3804646730  -999.250000
 1723.0000000  -999.250000  -999.250000 2.5153226852 2.5153226852 105.86117554 65.483245850  -999.250000 10.460677147 10.460677147 1.3766279221 1.3766279221  -999.250000
 1723.5000000  -999.250000  -999.250000 2.5025525093 2.5025525093 104.49388123 64.397758484  -999.250000 10.459778786 10.459778786 1.3727905750 1.3727905750  -999.250000
 1724.0000000  -999.250000  -999.250000 2.5016281605 2.5016281605 103.39513397 70.986007690  -999.250000 10.452322006 10.452322006 1.3689539433 1.3689539433  -999.250000
 1724.5000000  -999.250000  -999.250000 2.5225529671 2.5225529671 105.13762665 68.770271301  -999.250000 10.447999954 10.447999954 1.3651164770 1.3651164770  -999.250000
 1725.0000000  -999.250000  -999.250000 2.5407948494 2.5407948494 104.41498566 68.699790955  -999.250000 10.444307327 10.444307327 1.3612797260 1.3612797260  -999.250000
 1725.5000000  -999.250000  -999.250000 2.4976789951 2.4976789951 108.74079132 69.316978455  -999.250000 10.432106972 10.432106972 1.3574423790 1.3574423790  -999.250000
 1726.0000000  -999.250000  -999.250000 2.5064592361 2.5064592361 104.34698486 71.272613525  -999.250000 10.424622536 10.424622536 1.3536056280 1.3536056280  -999.250000
 1726.5000000  -999.250000  -999.250000 2.4790384769 2.4790384769 109.80308533 68.732643127  -999.250000 10.420000076 10.420000076 1.3497681618 1.3497681618  -999.250000
 1727.0000000  -999.250000  -999.250000 2.4912500381 2.4912500381 104.42458344 62.250938416  -999.250000 10.411936760 10.411936760 1.3459316492 1.3459316492  -999.250000
 1727.5000000  -999.250000  -999.250000 2.5291128159 2.5291128159 104.77355194 64.690780640  -999.250000 10.404189110 10.404189110 1.3420943022 1.3420943022  -999.250000
