# LAS format log file from PETREL
# Project units are specified as depth units
#==================================================================
~Version information
VERS.   2.0:
WRAP.   NO:
#==================================================================
~Well
STRT .m      0.0000000000 :
STOP .m      2974.0000000 :
STEP .m     0.50000000 :
NULL .        -999.250000 :
COMP.           : COMPANY
WELL.  AMR-1   : WELL
FLD.            : FIELD
LOC.            : LOCATION
SRVC.           : SERVICE COMPANY
DATE.  2022-11-03 20:42:11   : Log Export Date {yyyy-MM-dd HH:mm:ss}
PROV.           : PROVINCE
UWI.   11000075013701   : UNIQUE WELL ID
API.            : API NUMBER
#==================================================================
~Curve
DEPT .m                   : DEPTH
NEU .m3/m3                : NEU
NEUT .m3/m3               : NEUT
DENS .g/cm3               : DENS
DEN .g/cm3                : DEN
DTC_Avg2 .us/ft           : DTC_Avg2
GR .gAPI                  : GR
PORNET_NOV14 .m3/m3       : PORNET_NOV14
CALI .in                  : CALI
CAL .in                   : CAL
RESD .ohm.m               : RESD
RES_DEP .ohm.m            : RES_DEP
VCL_2014 ._               : VCL_2014
~Parameter
#==================================================================
~Ascii
# ...
 648.00000000  -999.250000  -999.250000 1.8261265755 1.8261265755 166.41491699 46.533710480  -999.250000 18.964973450 18.964973450 0.6429683566 0.6429683566  -999.250000
 648.50000000  -999.250000  -999.250000 1.8369960785 1.8369960785 166.45063782 48.128734589  -999.250000 18.973642349 18.973642349 0.6460000277 0.6460000277  -999.250000
 649.00000000  -999.250000  -999.250000 1.8482884169 1.8482884169 176.61131287 53.678901672  -999.250000 18.993381500 18.993381500 0.6475302577 0.6475302577  -999.250000
 649.50000000  -999.250000  -999.250000 1.8424329758 1.8424329758 174.56961060 53.158950806  -999.250000 18.874580383 18.874580383 0.6510000229 0.6510000229  -999.250000
 650.00000000  -999.250000  -999.250000 1.8407337666 1.8407337666 178.54530334 55.583858490  -999.250000 18.551689148 18.551689148 0.6540917158 0.6540917158  -999.250000
 650.50000000  -999.250000  -999.250000 1.8674914837 1.8674914837 175.06719971 50.577598572  -999.250000 18.496711731 18.496711731 0.6631185412 0.6631185412  -999.250000
 651.00000000  -999.250000  -999.250000 1.8712679148 1.8712679148 168.76472473 47.641857147  -999.250000 18.617528915 18.617528915 0.6749607325 0.6749607325  -999.250000
 651.50000000  -999.250000  -999.250000 1.8682627678 1.8682627678 164.97209167 47.607524872  -999.250000 18.618051529 18.618051529 0.6759999990 0.6759999990  -999.250000
 652.00000000  -999.250000  -999.250000 1.8390644789 1.8390644789 171.05778503 49.974136353  -999.250000 18.633998871 18.633998871 0.6719247103 0.6719247103  -999.250000
 652.50000000  -999.250000  -999.250000 1.8409695625 1.8409695625 170.28778076 47.174697876  -999.250000 18.406641006 18.406641006 0.6530076265 0.6530076265  -999.250000
 653.00000000  -999.250000  -999.250000 1.8803231716 1.8803231716 168.15522766 48.444087982  -999.250000 18.379991531 18.379991531 0.6482230425 0.6482230425  -999.250000
 653.50000000  -999.250000  -999.250000 1.8778270483 1.8778270483 168.44880676 50.665359497  -999.250000 18.411518097 18.411518097 0.6389423013 0.6389423013  -999.250000
 654.00000000  -999.250000  -999.250000 1.8832927942 1.8832927942 169.46969604 51.087734222  -999.250000 18.575456619 18.575456619 0.6366615891 0.6366615891  -999.250000
 654.50000000  -999.250000  -999.250000 1.8238482475 1.8238482475 169.78068542 48.284610748  -999.250000 18.894687653 18.894687653 0.6363804340 0.6363804340  -999.250000
 655.00000000  -999.250000  -999.250000 1.8293019533 1.8293019533 173.63018799 49.394504547  -999.250000 18.403146744 18.403146744 0.6292991638 0.6292991638  -999.250000
 655.50000000  -999.250000  -999.250000 1.8152759075 1.8152759075 173.50498962 51.490657806  -999.250000 18.165380478 18.165380478 0.6110000014 0.6110000014  -999.250000
 656.00000000  -999.250000  -999.250000 1.8056902885 1.8056902885 180.54243469 48.214588165  -999.250000 18.052337646 18.052337646 0.6196955442 0.6196955442  -999.250000
 656.50000000  -999.250000  -999.250000 1.8148862123 1.8148862123 184.44760132 48.024002075  -999.250000 17.294790268 17.294790268 0.6397428513 0.6397428513  -999.250000
 657.00000000  -999.250000  -999.250000 1.8501653671 1.8501653671 187.94223022 53.395988464  -999.250000 17.418306351 17.418306351 0.6379764080 0.6379764080  -999.250000
 657.50000000  -999.250000  -999.250000 1.8183039427 1.8183039427 197.07574463 56.214878082  -999.250000 17.958786011 17.958786011 0.6284781694 0.6284781694  -999.250000
 658.00000000  -999.250000  -999.250000 1.7824879885 1.7824879885 197.96578979 52.558650970  -999.250000 18.084852219 18.084852219 0.6166586876 0.6166586876  -999.250000
 658.50000000  -999.250000  -999.250000 1.7831337452 1.7831337452 194.99192810 49.199508667  -999.250000 17.323308945 17.323308945 0.5978025794 0.5978025794  -999.250000
 659.00000000  -999.250000  -999.250000 1.7771153450 1.7771153450 190.33735657 47.334190369  -999.250000 16.096584320 16.096584320 0.5884121060 0.5884121060  -999.250000
 659.50000000  -999.250000  -999.250000 1.8461385965 1.8461385965 189.34197998 47.083755493  -999.250000 16.615352631 16.615352631 0.5834277272 0.5834277272  -999.250000
 660.00000000  -999.250000  -999.250000 1.8083690405 1.8083690405 188.53448486 40.167270660  -999.250000 19.768754959 19.768754959 0.5997960567 0.5997960567  -999.250000
 660.50000000  -999.250000  -999.250000 1.8027292490 1.8027292490 186.62757874 41.898826599  -999.250000 18.272396088 18.272396088 0.6269375086 0.6269375086  -999.250000
 661.00000000  -999.250000  -999.250000 1.8101077080 1.8101077080 185.21354675 51.332771301  -999.250000 17.146373749 17.146373749 0.6306219697 0.6306219697  -999.250000
 661.50000000  -999.250000  -999.250000 1.8008170128 1.8008170128 183.99888611 54.780921936  -999.250000 18.283012390 18.283012390 0.6456531882 0.6456531882  -999.250000
 662.00000000  -999.250000  -999.250000 1.8170144558 1.8170144558 175.26234436 52.764831543  -999.250000 19.379732132 19.379732132 0.6508321762 0.6508321762  -999.250000
 662.50000000  -999.250000  -999.250000 1.8018705845 1.8018705845 174.25936890 47.906425476  -999.250000 19.761993408 19.761993408 0.6518870592 0.6518870592  -999.250000
 663.00000000  -999.250000  -999.250000 1.7937556505 1.7937556505 175.03886414 50.185771942  -999.250000 19.544755936 19.544755936 0.6499999762 0.6499999762  -999.250000
 663.50000000  -999.250000  -999.250000 1.8082326651 1.8082326651 172.78382874 51.452514648  -999.250000 19.808885574 19.808885574 0.6493255496 0.6493255496  -999.250000
 664.00000000  -999.250000  -999.250000 1.8510220051 1.8510220051 169.96986389 50.143516541  -999.250000 19.280242920 19.280242920 0.6529110670 0.6529110670  -999.250000
 664.50000000  -999.250000  -999.250000 1.8359283209 1.8359283209 166.04249573 43.672439575  -999.250000 20.076271057 20.076271057 0.6594176888 0.6594176888  -999.250000
 665.00000000  -999.250000  -999.250000 1.8124489784 1.8124489784 162.78221130 42.492774963  -999.250000 20.051864624 20.051864624 0.6866191626 0.6866191626  -999.250000
 665.50000000  -999.250000  -999.250000 1.8313820362 1.8313820362 161.82876587 43.184265137  -999.250000 20.065372467 20.065372467 0.7031910419 0.7031910419  -999.250000
 666.00000000  -999.250000  -999.250000 1.8438678980 1.8438678980 163.31338501 46.899299622  -999.250000 19.850091934 19.850091934 0.7052366734 0.7052366734  -999.250000
 666.50000000  -999.250000  -999.250000 1.8508074284 1.8508074284 158.94892883 43.415515900  -999.250000 19.964481354 19.964481354 0.7124385238 0.7124385238  -999.250000
 667.00000000  -999.250000  -999.250000 1.8248771429 1.8248771429 157.41027832 43.828250885  -999.250000 19.844425201 19.844425201 0.7160000205 0.7160000205  -999.250000
 667.50000000  -999.250000  -999.250000 1.8366844654 1.8366844654 159.46781921 40.706134796  -999.250000 18.853300095 18.853300095 0.7103944421 0.7103944421  -999.250000
 668.00000000  -999.250000  -999.250000 1.8481686115 1.8481686115 161.97975159 44.070163727  -999.250000 19.417236328 19.417236328 0.6751910448 0.6751910448  -999.250000
 668.50000000  -999.250000  -999.250000 1.8318297863 1.8318297863 159.89633179 43.835514069  -999.250000 18.643360138 18.643360138 0.6834148765 0.6834148765  -999.250000
 669.00000000  -999.250000  -999.250000 1.8619283438 1.8619283438 156.32426453 43.649765015  -999.250000 19.009485245 19.009485245 0.6942911148 0.6942911148  -999.250000
 669.50000000  -999.250000  -999.250000 1.8748000860 1.8748000860 157.64825439 41.998039246  -999.250000 18.604135513 18.604135513 0.7012222409 0.7012222409  -999.250000
 670.00000000  -999.250000  -999.250000 1.8920464516 1.8920464516 160.80880737 39.534801483  -999.250000 18.976903915 18.976903915 0.7182791233 0.7182791233  -999.250000
 670.50000000  -999.250000  -999.250000 1.8988505602 1.8988505602 160.18063354 38.180294037  -999.250000 18.656776428 18.656776428 0.7333936691 0.7333936691  -999.250000
 671.00000000  -999.250000  -999.250000 1.8936940432 1.8936940432 161.57899475 42.768695831  -999.250000 18.705987930 18.705987930 0.7388870716 0.7388870716  -999.250000
 671.50000000  -999.250000  -999.250000 1.8889927864 1.8889927864 160.21275330 44.053581238  -999.250000 18.715045929 18.715045929 0.7374963760 0.7374963760  -999.250000
