# LAS format log file from PETREL
# Project units are specified as depth units
#==================================================================
~Version information
VERS.   2.0:
WRAP.   NO:
#==================================================================
~Well
STRT .m      0.0000000000 :
STOP .m      2974.0000000 :
STEP .m     0.50000000 :
NULL .        -999.250000 :
COMP.           : COMPANY
WELL.  AMR-1   : WELL
FLD.            : FIELD
LOC.            : LOCATION
SRVC.           : SERVICE COMPANY
DATE.  2022-11-03 20:42:11   : Log Export Date {yyyy-MM-dd HH:mm:ss}
PROV.           : PROVINCE
UWI.   11000075013701   : UNIQUE WELL ID
API.            : API NUMBER
#==================================================================
~Curve
DEPT .m                   : DEPTH
NEU .m3/m3                : NEU
NEUT .m3/m3               : NEUT
DENS .g/cm3               : DENS
DEN .g/cm3                : DEN
DTC_Avg2 .us/ft           : DTC_Avg2
GR .gAPI                  : GR
PORNET_NOV14 .m3/m3       : PORNET_NOV14
CALI .in                  : CALI
CAL .in                   : CAL
RESD .ohm.m               : RESD
RES_DEP .ohm.m            : RES_DEP
VCL_2014 ._               : VCL_2014
~Parameter
#==================================================================
~Ascii
# ...
 456.00000000  -999.250000  -999.250000 2.0039999485 2.0039999485 126.04679108 27.267824173  -999.250000 14.539014816 14.539014816 1.2225688696 1.2225688696  -999.250000
 456.50000000  -999.250000  -999.250000 2.0318481922 2.0318481922 141.71983337 24.271636963  -999.250000 14.614475250 14.614475250 1.0058557987 1.0058557987  -999.250000
 457.00000000  -999.250000  -999.250000 2.0133733749 2.0133733749 144.47276306 22.279283524  -999.250000 14.626126289 14.626126289 0.7897444963 0.7897444963  -999.250000
 457.50000000  -999.250000  -999.250000 1.9376602173 1.9376602173 146.79156494 22.464448929  -999.250000 14.633880615 14.633880615 0.7123458385 0.7123458385  -999.250000
 458.00000000  -999.250000  -999.250000 2.0144901276 2.0144901276 105.14720917 26.635929108  -999.250000 14.489742279 14.489742279 0.7479747534 0.7479747534  -999.250000
 458.50000000  -999.250000  -999.250000 2.0216975212 2.0216975212 141.62100220 26.860813141  -999.250000 14.747213364 14.747213364 0.8274092674 0.8274092674  -999.250000
 459.00000000  -999.250000  -999.250000 2.0320549011 2.0320549011 149.73483276 24.361757278  -999.250000 14.578992844 14.578992844 0.7771037221 0.7771037221  -999.250000
 459.50000000  -999.250000  -999.250000 1.9988161325 1.9988161325 138.67332458 21.410926819  -999.250000 14.599896431 14.599896431 0.7508161664 0.7508161664  -999.250000
 460.00000000  -999.250000  -999.250000 2.0350990295 2.0350990295 89.485069275 23.664588928  -999.250000 14.635707855 14.635707855 0.7313726544 0.7313726544  -999.250000
 460.50000000  -999.250000  -999.250000 2.0587253571 2.0587253571 138.68040466 24.927139282  -999.250000 14.673150063 14.673150063 0.7701109648 0.7701109648  -999.250000
 461.00000000  -999.250000  -999.250000 2.1053431034 2.1053431034 145.82560730 26.943815231  -999.250000 14.718080521 14.718080521 0.8017372489 0.8017372489  -999.250000
 461.50000000  -999.250000  -999.250000 2.0782778263 2.0782778263 142.62266541 23.857725143  -999.250000 14.737999916 14.737999916 0.8092916012 0.8092916012  -999.250000
 462.00000000  -999.250000  -999.250000 2.0984077454 2.0984077454 146.72192383 23.549999237  -999.250000 14.717552185 14.717552185 0.8437837362 0.8437837362  -999.250000
 462.50000000  -999.250000  -999.250000 2.2062926292 2.2062926292 103.80385590 24.739885330  -999.250000 14.735084534 14.735084534 0.9649924040 0.9649924040  -999.250000
 463.00000000  -999.250000  -999.250000 2.1565968990 2.1565968990 112.43742371 23.773174286  -999.250000 14.743788719 14.743788719 0.9266927838 0.9266927838  -999.250000
 463.50000000  -999.250000  -999.250000 2.0509684086 2.0509684086 147.59898376 25.229873657  -999.250000 14.722000122 14.722000122 0.8138576150 0.8138576150  -999.250000
 464.00000000  -999.250000  -999.250000 2.0422387123 2.0422387123 139.82791138 25.661725998  -999.250000 14.752356529 14.752356529 0.7715740800 0.7715740800  -999.250000
 464.50000000  -999.250000  -999.250000 2.0742022991 2.0742022991 146.11799622 25.594488144  -999.250000 14.630897522 14.630897522 0.8312050700 0.8312050700  -999.250000
 465.00000000  -999.250000  -999.250000 2.0614569187 2.0614569187 139.65534973 26.710037231  -999.250000 14.702802658 14.702802658 0.8808968663 0.8808968663  -999.250000
 465.50000000  -999.250000  -999.250000 2.0740761757 2.0740761757 133.67039490 29.193952560  -999.250000 14.608592987 14.608592987 0.9309293628 0.9309293628  -999.250000
 466.00000000  -999.250000  -999.250000 2.0600585938 2.0600585938 149.55096436 25.154220581  -999.250000 14.718853951 14.718853951 0.8777484894 0.8777484894  -999.250000
 466.50000000  -999.250000  -999.250000 2.0053148270 2.0053148270 146.38774109 20.352079391  -999.250000 14.681858063 14.681858063 0.8354565501 0.8354565501  -999.250000
 467.00000000  -999.250000  -999.250000 1.9489557743 1.9489557743 126.98379517 20.769613266  -999.250000 14.667218208 14.667218208 0.7707804441 0.7707804441  -999.250000
 467.50000000  -999.250000  -999.250000 1.9264881611 1.9264881611 150.07702637 21.569776535  -999.250000 14.869063377 14.869063377 0.6972204447 0.6972204447  -999.250000
 468.00000000  -999.250000  -999.250000 1.9342607260 1.9342607260 158.42953491 21.137552261  -999.250000 14.717000008 14.717000008 0.7033945322 0.7033945322  -999.250000
 468.50000000  -999.250000  -999.250000 2.0191757679 2.0191757679 127.85168457 21.840810776  -999.250000 14.701852798 14.701852798 0.8291730285 0.8291730285  -999.250000
 469.00000000  -999.250000  -999.250000 1.9971551895 1.9971551895 137.99452209 23.938283920  -999.250000 14.638615608 14.638615608 0.9756949544 0.9756949544  -999.250000
 469.50000000  -999.250000  -999.250000 1.9822913408 1.9822913408 126.06697845 22.033199310  -999.250000 14.547708511 14.547708511 0.9750788808 0.9750788808  -999.250000
 470.00000000  -999.250000  -999.250000 1.9840832949 1.9840832949 138.85574341 23.747819901  -999.250000 14.589854240 14.589854240 0.9570937753 0.9570937753  -999.250000
 470.50000000  -999.250000  -999.250000 1.9800000191 1.9800000191 142.51524353 23.646728516  -999.250000 14.590351105 14.590351105 0.8076463938 0.8076463938  -999.250000
 471.00000000  -999.250000  -999.250000 1.9513847828 1.9513847828 147.34849548 22.574537277  -999.250000 14.606102943 14.606102943 0.7179360986 0.7179360986  -999.250000
 471.50000000  -999.250000  -999.250000 1.9561439753 1.9561439753 131.65669250 21.771970749  -999.250000 14.604840279 14.604840279 0.6843360066 0.6843360066  -999.250000
 472.00000000  -999.250000  -999.250000 1.9721930027 1.9721930027 132.64479065 24.626411438  -999.250000 14.625244141 14.625244141 0.7595009804 0.7595009804  -999.250000
 472.50000000  -999.250000  -999.250000 1.9800862074 1.9800862074 135.98957825 24.089963913  -999.250000 14.732370377 14.732370377 0.7820633054 0.7820633054  -999.250000
 473.00000000  -999.250000  -999.250000 1.9906507730 1.9906507730 132.73793030 27.226430893  -999.250000 14.682674408 14.682674408 0.8384206891 0.8384206891  -999.250000
 473.50000000  -999.250000  -999.250000 1.9820892811 1.9820892811 124.12617493 24.724315643  -999.250000 14.673446655 14.673446655 0.7944288850 0.7944288850  -999.250000
 474.00000000  -999.250000  -999.250000 1.9682743549 1.9682743549 139.43704224 23.563455582  -999.250000 14.623400688 14.623400688 0.7645611167 0.7645611167  -999.250000
 474.50000000  -999.250000  -999.250000 1.9641021490 1.9641021490 116.83834839 19.810543060  -999.250000 14.598516464 14.598516464 0.7959319353 0.7959319353  -999.250000
 475.00000000  -999.250000  -999.250000 1.9647877216 1.9647877216 126.46648407 21.238025665  -999.250000 14.625968933 14.625968933 0.8021816611 0.8021816611  -999.250000
 475.50000000  -999.250000  -999.250000 1.9637082815 1.9637082815 139.24066162 24.925207138  -999.250000 14.702045441 14.702045441 0.7619213462 0.7619213462  -999.250000
 476.00000000  -999.250000  -999.250000 1.9938422441 1.9938422441 139.76536560 31.942996979  -999.250000 14.732536316 14.732536316 0.7983330488 0.7983330488  -999.250000
 476.50000000  -999.250000  -999.250000 2.0217633247 2.0217633247 145.05242920 35.589797974  -999.250000 14.999284744 14.999284744 0.8776935935 0.8776935935  -999.250000
 477.00000000  -999.250000  -999.250000 1.9826295376 1.9826295376 141.00997925 31.471294403  -999.250000 15.110198975 15.110198975 1.0328751802 1.0328751802  -999.250000
 477.50000000  -999.250000  -999.250000 1.9872121811 1.9872121811 116.41818237 29.234540939  -999.250000 14.718202591 14.718202591 1.1551123857 1.1551123857  -999.250000
 478.00000000  -999.250000  -999.250000 1.9701702595 1.9701702595 143.77742004 32.313899994  -999.250000 15.493865967 15.493865967 1.3874745369 1.3874745369  -999.250000
 478.50000000  -999.250000  -999.250000 1.9851646423 1.9851646423 121.42059326 30.016492844  -999.250000 14.731708527 14.731708527 1.3992531300 1.3992531300  -999.250000
 479.00000000  -999.250000  -999.250000 1.9635088444 1.9635088444 127.25292206 28.298439026  -999.250000 15.009372711 15.009372711 1.3226686716 1.3226686716  -999.250000
 479.50000000  -999.250000  -999.250000 1.9233729839 1.9233729839 148.30812073 34.126613617  -999.250000 15.563345909 15.563345909 1.0576434135 1.0576434135  -999.250000
