# LAS format log file from PETREL
# Project units are specified as depth units
#==================================================================
~Version information
VERS.   2.0:
WRAP.   NO:
#==================================================================
~Well
STRT .m      0.0000000000 :
STOP .m      2974.0000000 :
STEP .m     0.50000000 :
NULL .        -999.250000 :
COMP.           : COMPANY
WELL.  AMR-1   : WELL
FLD.            : FIELD
LOC.            : LOCATION
SRVC.           : SERVICE COMPANY
DATE.  2022-11-03 20:42:11   : Log Export Date {yyyy-MM-dd HH:mm:ss}
PROV.           : PROVINCE
UWI.   11000075013701   : UNIQUE WELL ID
API.            : API NUMBER
#==================================================================
~Curve
DEPT .m                   : DEPTH
NEU .m3/m3                : NEU
NEUT .m3/m3               : NEUT
DENS .g/cm3               : DENS
DEN .g/cm3                : DEN
DTC_Avg2 .us/ft           : DTC_Avg2
GR .gAPI                  : GR
PORNET_NOV14 .m3/m3       : PORNET_NOV14
CALI .in                  : CALI
CAL .in                   : CAL
RESD .ohm.m               : RESD
RES_DEP .ohm.m            : RES_DEP
VCL_2014 ._               : VCL_2014
~Parameter
#==================================================================
~Ascii
# ...
 2760.0000000 0.0268959142 0.0268959142 2.2095289230 2.2095289230 66.380157471 12.532957077  -999.250000 10.704187393 10.704187393 1415.8909912 1415.8909912  -999.250000
 2760.5000000 0.0294467639 0.0294467639 2.1953060627 2.1953060627 65.704727173 10.923166275  -999.250000 10.718576431 10.718576431 1412.6627197 1412.6627197  -999.250000
 2761.0000000 0.0335062519 0.0335062519 2.2088172436 2.2088172436 65.581565857 10.069711685  -999.250000 10.666826248 10.666826248 1410.0455322 1410.0455322  -999.250000
 2761.5000000 0.0317945518 0.0317945518 2.2032356262 2.2032356262 66.334884644 8.7291202545  -999.250000 10.684864044 10.684864044 1410.8469238 1410.8469238  -999.250000
 2762.0000000 0.0298553854 0.0298553854 2.1979229450 2.1979229450 66.732002258 9.7828207016  -999.250000 10.611384392 10.611384392 1406.7917480 1406.7917480  -999.250000
 2762.5000000 0.0302317962 0.0302317962 2.1762051582 2.1762051582 66.001693726 9.2229223251  -999.250000 10.618871689 10.618871689 1411.5950928 1411.5950928  -999.250000
 2763.0000000 0.0332882665 0.0332882665 2.2256650925 2.2256650925 65.913612366 9.3614578247  -999.250000 10.663450241 10.663450241 1408.1684570 1408.1684570  -999.250000
 2763.5000000 0.0282967314 0.0282967314 2.2139902115 2.2139902115 66.136779785 9.9764995575  -999.250000 10.680528641 10.680528641 1410.6844482 1410.6844482  -999.250000
 2764.0000000 0.0271234941 0.0271234941 2.1987645626 2.1987645626 66.384597778 9.3400077820  -999.250000 10.811588287 10.811588287 1420.6173096 1420.6173096  -999.250000
 2764.5000000 0.0280399043 0.0280399043 2.1871151924 2.1871151924 66.296852112 9.7241592407  -999.250000 10.811408997 10.811408997 1421.4235840 1421.4235840  -999.250000
 2765.0000000 0.0280173086 0.0280173086 2.2044615746 2.2044615746 66.057685852 8.3230257034  -999.250000 10.797768593 10.797768593 1426.3321533 1426.3321533  -999.250000
 2765.5000000 0.0282761380 0.0282761380 2.1976265907 2.1976265907 65.810394287 8.3859214783  -999.250000 10.790555000 10.790555000 1404.1057129 1404.1057129  -999.250000
 2766.0000000 0.0279488470 0.0279488470 2.1914520264 2.1914520264 65.642532349 8.6162204742  -999.250000 10.827567101 10.827567101 1426.2398682 1426.2398682  -999.250000
 2766.5000000 0.0263242945 0.0263242945 2.2010097504 2.2010097504 66.303977966 9.2396221161  -999.250000 10.918092728 10.918092728 1423.7340088 1423.7340088  -999.250000
 2767.0000000 0.0285860579 0.0285860579 2.1828317642 2.1828317642 66.546340942 10.351072311  -999.250000 10.903010368 10.903010368 1423.2935791 1423.2935791  -999.250000
 2767.5000000 0.0290237181 0.0290237181 2.1849615574 2.1849615574 65.917190552 10.252679825  -999.250000 10.885539055 10.885539055 1421.1169434 1421.1169434  -999.250000
 2768.0000000 0.0280804168 0.0280804168 2.2079999447 2.2079999447 65.179374695 11.219437599  -999.250000 10.930957794 10.930957794 1421.5100098 1421.5100098  -999.250000
 2768.5000000 0.0287444014 0.0287444014 2.2500784397 2.2500784397 65.886405945 12.941923141  -999.250000 10.878156662 10.878156662 1418.4534912 1418.4534912  -999.250000
 2769.0000000 0.0246816650 0.0246816650 2.2260835171 2.2260835171 64.803207397 11.356166840  -999.250000 10.938208580 10.938208580 1393.2121582 1393.2121582  -999.250000
 2769.5000000 0.0268501434 0.0268501434 2.2312932014 2.2312932014 64.664749146 10.476192474  -999.250000 10.852231026 10.852231026 1385.8865967 1385.8865967  -999.250000
 2770.0000000 0.0214102566 0.0214102566 2.2591154575 2.2591154575 65.807281494 11.490634918  -999.250000 10.778429031 10.778429031 1397.7489014 1397.7489014  -999.250000
 2770.5000000 0.0200952645 0.0200952645 2.2491936684 2.2491936684 64.821983337 9.6201620102  -999.250000 10.816252708 10.816252708 1427.4925537 1427.4925537  -999.250000
 2771.0000000 0.0238590073 0.0238590073 2.2646603584 2.2646603584 65.139549255 10.127368927  -999.250000 10.727113724 10.727113724 1466.6774902 1466.6774902  -999.250000
 2771.5000000 0.0284951925 0.0284951925 2.2655639648 2.2655639648 63.970069885 8.6801795959  -999.250000 10.795564651 10.795564651 1466.2762451 1466.2762451  -999.250000
 2772.0000000 0.0272906739 0.0272906739 2.3143990040 2.3143990040 64.950042725 10.298523903  -999.250000 10.671927452 10.671927452 1445.0327148 1445.0327148  -999.250000
 2772.5000000 0.0194947366 0.0194947366 2.3109390736 2.3109390736 64.191123962 10.270663261  -999.250000 10.580527306 10.580527306 1401.1887207 1401.1887207  -999.250000
 2773.0000000 0.0251338463 0.0251338463 2.3273847103 2.3273847103 60.373153687 10.851461411  -999.250000 10.465461731 10.465461731 1317.7733154 1317.7733154  -999.250000
 2773.5000000 0.0276562180 0.0276562180 2.3932051659 2.3932051659 58.813270569 9.4362134933  -999.250000 10.372054100 10.372054100 1187.9379883 1187.9379883  -999.250000
 2774.0000000 0.0292157698 0.0292157698 2.4805898666 2.4805898666 55.695117950 13.212192535  -999.250000 10.060262680 10.060262680 985.68859863 985.68859863  -999.250000
 2774.5000000 0.0304463040 0.0304463040 2.5489008427 2.5489008427 53.500900269 12.463005066  -999.250000 9.9051923752 9.9051923752 855.24688721 855.24688721  -999.250000
 2775.0000000 0.0255219564 0.0255219564 2.7012228966 2.7012228966 51.814212799 13.398089409  -999.250000 9.8973093033 9.8973093033 783.18841553 783.18841553  -999.250000
 2775.5000000 0.0184890386 0.0184890386 2.7925770283 2.7925770283 51.490520477 13.425000191  -999.250000 9.9209995270 9.9209995270 893.39764404 893.39764404  -999.250000
 2776.0000000 0.0098850485 0.0098850485 2.9494600296 2.9494600296 51.935039520 14.608275414  -999.250000 9.8924503326 9.8924503326 1076.7727051 1076.7727051  -999.250000
 2776.5000000 0.0019302400 0.0019302400 2.9390640259 2.9390640259 52.852344513 15.127711296  -999.250000 9.9565362930 9.9565362930 1095.6096191 1095.6096191  -999.250000
 2777.0000000 -0.001887180 -0.001887180 2.9228589535 2.9228589535 53.268932343 12.244542122  -999.250000 9.9463624954 9.9463624954 1126.9041748 1126.9041748  -999.250000
 2777.5000000 -0.000305337 -0.000305337 2.9508028030 2.9508028030 52.669017792 13.329170227  -999.250000 9.8977365494 9.8977365494 971.62158203 971.62158203  -999.250000
 2778.0000000 -0.003234231 -0.003234231 2.9360771179 2.9360771179 52.293190002 17.359230042  -999.250000 9.9011545181 9.9011545181 842.62268066 842.62268066  -999.250000
 2778.5000000 -0.001375360 -0.001375360 2.9126272202 2.9126272202 52.246604919 17.845750809  -999.250000 9.9573249817 9.9573249817 761.86010742 761.86010742  -999.250000
 2779.0000000 -0.001566779 -0.001566779 2.9127211571 2.9127211571 51.135620117 18.685220718  -999.250000 9.9779138565 9.9779138565 892.22637939 892.22637939  -999.250000
 2779.5000000 -0.000960000 -0.000960000 2.9054584503 2.9054584503 51.222656250 20.005695343  -999.250000 9.9069204330 9.9069204330 809.98400879 809.98400879  -999.250000
 2780.0000000 -0.000960000 -0.000960000 2.8896088600 2.8896088600 53.862380981 28.408609390  -999.250000 9.8916521072 9.8916521072 281.49557495 281.49557495  -999.250000
 2780.5000000 0.0103330407 0.0103330407 2.8009855747 2.8009855747 54.355281830 47.068351746  -999.250000 9.8384914398 9.8384914398 312.77850342 312.77850342  -999.250000
 2781.0000000 0.0371344797 0.0371344797 2.7228720188 2.7228720188 55.123493195 48.715496063  -999.250000 9.8745679855 9.8745679855 204.86473083 204.86473083  -999.250000
 2781.5000000 0.0276418757 0.0276418757 2.7078750134 2.7078750134 59.229312897 51.028690338  -999.250000 9.8916873932 9.8916873932 118.91531372 118.91531372  -999.250000
 2782.0000000 0.0404921807 0.0404921807 2.6976635456 2.6976635456 56.091567993 55.399925232  -999.250000 9.8480348587 9.8480348587 238.26611328 238.26611328  -999.250000
 2782.5000000 0.0397611670 0.0397611670 2.6774942875 2.6774942875 55.246120453 53.597339630  -999.250000 9.9063339233 9.9063339233 418.78955078 418.78955078  -999.250000
 2783.0000000 0.0281749275 0.0281749275 2.6779134274 2.6779134274 52.472782135 50.243091583  -999.250000 9.9658622742 9.9658622742 551.41070557 551.41070557  -999.250000
 2783.5000000 0.0200658962 0.0200658962 2.6765642166 2.6765642166 53.961128235 49.462154388  -999.250000 9.9773073196 9.9773073196 570.26538086 570.26538086  -999.250000
