# LAS format log file from PETREL
# Project units are specified as depth units
#==================================================================
~Version information
VERS.   2.0:
WRAP.   NO:
#==================================================================
~Well
STRT .m      0.0000000000 :
STOP .m      2974.0000000 :
STEP .m     0.50000000 :
NULL .        -999.250000 :
COMP.           : COMPANY
WELL.  AMR-1   : WELL
FLD.            : FIELD
LOC.            : LOCATION
SRVC.           : SERVICE COMPANY
DATE.  2022-11-03 20:42:11   : Log Export Date {yyyy-MM-dd HH:mm:ss}
PROV.           : PROVINCE
UWI.   11000075013701   : UNIQUE WELL ID
API.            : API NUMBER
#==================================================================
~Curve
DEPT .m                   : DEPTH
NEU .m3/m3                : NEU
NEUT .m3/m3               : NEUT
DENS .g/cm3               : DENS
DEN .g/cm3                : DEN
DTC_Avg2 .us/ft           : DTC_Avg2
GR .gAPI                  : GR
PORNET_NOV14 .m3/m3       : PORNET_NOV14
CALI .in                  : CALI
CAL .in                   : CAL
RESD .ohm.m               : RESD
RES_DEP .ohm.m            : RES_DEP
VCL_2014 ._               : VCL_2014
~Parameter
#==================================================================
~Ascii
# ...
 288.00000000  -999.250000  -999.250000 2.0595991611 2.0595991611 161.41017151 50.077339172  -999.250000 16.557544708 16.557544708 1.8987088203 1.8987088203  -999.250000
 288.50000000  -999.250000  -999.250000 2.0539999008 2.0539999008 161.14820862 45.272422791  -999.250000 16.244348526 16.244348526 1.8582408428 1.8582408428  -999.250000
 289.00000000  -999.250000  -999.250000 2.0526983738 2.0526983738 161.36965942 46.213752747  -999.250000 16.375337601 16.375337601 1.8170000315 1.8170000315  -999.250000
 289.50000000  -999.250000  -999.250000 2.0713076591 2.0713076591 161.83804321 48.396701813  -999.250000 16.224866867 16.224866867 1.7849911451 1.7849911451  -999.250000
 290.00000000  -999.250000  -999.250000 2.0934355259 2.0934355259 163.79139709 46.092914581  -999.250000 15.896215439 15.896215439 1.7297905684 1.7297905684  -999.250000
 290.50000000  -999.250000  -999.250000 2.0394878387 2.0394878387 165.09687805 48.060897827  -999.250000 15.417935371 15.417935371 1.6979759932 1.6979759932  -999.250000
 291.00000000  -999.250000  -999.250000 2.0401663780 2.0401663780 163.86610413 50.884208679  -999.250000 16.138923645 16.138923645 1.6120504141 1.6120504141  -999.250000
 291.50000000  -999.250000  -999.250000 2.0088107586 2.0088107586 166.13537598 56.291389465  -999.250000 16.207702637 16.207702637 1.4646503925 1.4646503925  -999.250000
 292.00000000  -999.250000  -999.250000 2.0050313473 2.0050313473 166.84736633 55.098056793  -999.250000 16.508060455 16.508060455 1.4742290974 1.4742290974  -999.250000
 292.50000000  -999.250000  -999.250000 2.0167875290 2.0167875290 166.37205505 52.169845581  -999.250000 16.474210739 16.474210739 1.5405355692 1.5405355692  -999.250000
 293.00000000  -999.250000  -999.250000 2.0299944878 2.0299944878 162.52609253 51.806507111  -999.250000 15.666888237 15.666888237 1.6536154747 1.6536154747  -999.250000
 293.50000000  -999.250000  -999.250000 2.0524408817 2.0524408817 160.37188721 52.162673950  -999.250000 16.877235413 16.877235413 1.7251470089 1.7251470089  -999.250000
 294.00000000  -999.250000  -999.250000 2.0349931717 2.0349931717 159.56753540 52.497776031  -999.250000 16.314741135 16.314741135 1.6426484585 1.6426484585  -999.250000
 294.50000000  -999.250000  -999.250000 2.0068292618 2.0068292618 165.53729248 50.101673126  -999.250000 16.583320618 16.583320618 1.5079238415 1.5079238415  -999.250000
 295.00000000  -999.250000  -999.250000 1.9966531992 1.9966531992 166.50495911 55.935344696  -999.250000 16.855583191 16.855583191 1.3896106482 1.3896106482  -999.250000
 295.50000000  -999.250000  -999.250000 1.9780472517 1.9780472517 169.67147827 58.983356476  -999.250000 16.376234055 16.376234055 1.3450709581 1.3450709581  -999.250000
 296.00000000  -999.250000  -999.250000 2.0181987286 2.0181987286 168.08448792 57.234878540  -999.250000 16.616664886 16.616664886 1.3683742285 1.3683742285  -999.250000
 296.50000000  -999.250000  -999.250000 1.9802283049 1.9802283049 167.53544617 57.498622894  -999.250000 17.605291367 17.605291367 1.4317662716 1.4317662716  -999.250000
 297.00000000  -999.250000  -999.250000 1.9977241755 1.9977241755 162.17298889 52.824844360  -999.250000 17.151174545 17.151174545 1.4379053116 1.4379053116  -999.250000
 297.50000000  -999.250000  -999.250000 1.9234986305 1.9234986305 167.27429199 55.258155823  -999.250000 17.746988297 17.746988297 1.3754073381 1.3754073381  -999.250000
 298.00000000  -999.250000  -999.250000 1.9755678177 1.9755678177 168.58721924 51.592128754  -999.250000 17.861354828 17.861354828 1.2724320889 1.2724320889  -999.250000
 298.50000000  -999.250000  -999.250000 2.0099840164 2.0099840164 168.40490723 48.378101349  -999.250000 17.205997467 17.205997467 1.3417785168 1.3417785168  -999.250000
 299.00000000  -999.250000  -999.250000 2.0200769901 2.0200769901 164.64010620 50.620063782  -999.250000 17.869150162 17.869150162 1.5048851967 1.5048851967  -999.250000
 299.50000000  -999.250000  -999.250000 2.0803458691 2.0803458691 157.80908203 61.073440552  -999.250000 16.946590424 16.946590424 1.7004842758 1.7004842758  -999.250000
 300.00000000  -999.250000  -999.250000 2.0930881500 2.0930881500 155.00117493 64.227523804  -999.250000 17.877639771 17.877639771 1.8451602459 1.8451602459  -999.250000
 300.50000000  -999.250000  -999.250000 2.1384305954 2.1384305954 151.39953613 69.314880371  -999.250000 16.495885849 16.495885849 1.9662152529 1.9662152529  -999.250000
 301.00000000  -999.250000  -999.250000 2.1912117004 2.1912117004 145.29353333 69.424972534  -999.250000 15.756999969 15.756999969 1.9726059437 1.9726059437  -999.250000
 301.50000000  -999.250000  -999.250000 2.1833465099 2.1833465099 141.60633850 68.498733521  -999.250000 15.786502838 15.786502838 2.0036604404 2.0036604404  -999.250000
 302.00000000  -999.250000  -999.250000 2.2096838951 2.2096838951 138.61810303 67.687919617  -999.250000 15.930990219 15.930990219 2.1064856052 2.1064856052  -999.250000
 302.50000000  -999.250000  -999.250000 2.2403566837 2.2403566837 136.95616150 77.683914185  -999.250000 16.023849487 16.023849487 2.2298862934 2.2298862934  -999.250000
 303.00000000  -999.250000  -999.250000 2.2530000210 2.2530000210 139.26945496 77.276405334  -999.250000 16.263853073 16.263853073 2.2379755974 2.2379755974  -999.250000
 303.50000000  -999.250000  -999.250000 2.2304093838 2.2304093838 142.63972473 87.116050720  -999.250000 16.330348969 16.330348969 2.1789999008 2.1789999008  -999.250000
 304.00000000  -999.250000  -999.250000 2.2387478352 2.2387478352 141.50840759 84.305091858  -999.250000 16.339040756 16.339040756 2.1789999008 2.1789999008  -999.250000
 304.50000000  -999.250000  -999.250000 2.2546856403 2.2546856403 138.48435974 83.968086243  -999.250000 16.259647369 16.259647369 2.1847231388 2.1847231388  -999.250000
 305.00000000  -999.250000  -999.250000 2.2345619202 2.2345619202 137.59817505 83.411331177  -999.250000 16.181060791 16.181060791 2.1863164902 2.1863164902  -999.250000
 305.50000000  -999.250000  -999.250000 2.2090687752 2.2090687752 142.65776062 82.120300293  -999.250000 16.355655670 16.355655670 2.1237308979 2.1237308979  -999.250000
 306.00000000  -999.250000  -999.250000 2.1842367649 2.1842367649 145.43327332 73.161712646  -999.250000 17.488134384 17.488134384 2.0881259441 2.0881259441  -999.250000
 306.50000000  -999.250000  -999.250000 2.1789410114 2.1789410114 143.42588806 73.182327271  -999.250000 16.799392700 16.799392700 2.0965478420 2.0965478420  -999.250000
 307.00000000  -999.250000  -999.250000 2.1995074749 2.1995074749 140.21324158 74.433441162  -999.250000 16.559814453 16.559814453 2.1362571716 2.1362571716  -999.250000
 307.50000000  -999.250000  -999.250000 2.1941189766 2.1941189766 140.35798645 72.140747070  -999.250000 16.744911194 16.744911194 2.0554604530 2.0554604530  -999.250000
 308.00000000  -999.250000  -999.250000 2.1330702305 2.1330702305 143.62861633 71.994026184  -999.250000 16.631462097 16.631462097 1.6744139194 1.6744139194  -999.250000
 308.50000000  -999.250000  -999.250000 1.9384740591 1.9384740591 172.31877136 60.654060364  -999.250000 15.831556320 15.831556320 1.2843316793 1.2843316793  -999.250000
 309.00000000  -999.250000  -999.250000 1.9024409056 1.9024409056 174.35266113 62.955249786  -999.250000 16.997117996 16.997117996 1.0787869692 1.0787869692  -999.250000
 309.50000000  -999.250000  -999.250000 1.8968009949 1.8968009949 174.37864685 68.500045776  -999.250000 17.289232254 17.289232254 1.0383204222 1.0383204222  -999.250000
 310.00000000  -999.250000  -999.250000 1.8823622465 1.8823622465 173.71653748 61.988739014  -999.250000 16.763347626 16.763347626 1.0382415056 1.0382415056  -999.250000
 310.50000000  -999.250000  -999.250000 1.8827953339 1.8827953339 173.07850647 65.011711121  -999.250000 16.926267624 16.926267624 1.0564328432 1.0564328432  -999.250000
 311.00000000  -999.250000  -999.250000 1.8660000563 1.8660000563 174.46707153 61.553352356  -999.250000 17.232416153 17.232416153 1.0793175697 1.0793175697  -999.250000
 311.50000000  -999.250000  -999.250000 1.8531105518 1.8531105518 175.37458801 53.200523376  -999.250000 16.458465576 16.458465576 1.0751105547 1.0751105547  -999.250000
