# LAS format log file from PETREL
# Project units are specified as depth units
#==================================================================
~Version information
VERS.   2.0:
WRAP.   NO:
#==================================================================
~Well
STRT .m      0.0000000000 :
STOP .m      2974.0000000 :
STEP .m     0.50000000 :
NULL .        -999.250000 :
COMP.           : COMPANY
WELL.  AMR-1   : WELL
FLD.            : FIELD
LOC.            : LOCATION
SRVC.           : SERVICE COMPANY
DATE.  2022-11-03 20:42:11   : Log Export Date {yyyy-MM-dd HH:mm:ss}
PROV.           : PROVINCE
UWI.   11000075013701   : UNIQUE WELL ID
API.            : API NUMBER
#==================================================================
~Curve
DEPT .m                   : DEPTH
NEU .m3/m3                : NEU
NEUT .m3/m3               : NEUT
DENS .g/cm3               : DENS
DEN .g/cm3                : DEN
DTC_Avg2 .us/ft           : DTC_Avg2
GR .gAPI                  : GR
PORNET_NOV14 .m3/m3       : PORNET_NOV14
CALI .in                  : CALI
CAL .in                   : CAL
RESD .ohm.m               : RESD
RES_DEP .ohm.m            : RES_DEP
VCL_2014 ._               : VCL_2014
~Parameter
#==================================================================
~Ascii
# ...
 1344.0000000  -999.250000  -999.250000 2.4571025372 2.4571025372 76.686630249 10.983450890  -999.250000 17.750959396 17.750959396 2.0980064869 2.0980064869  -999.250000
 1344.5000000  -999.250000  -999.250000 2.4811074734 2.4811074734 75.166046143 12.086508751  -999.250000 17.583677292 17.583677292 2.2553217411 2.2553217411  -999.250000
 1345.0000000  -999.250000  -999.250000 2.4464592934 2.4464592934 78.200904846 11.080428123  -999.250000 17.938371658 17.938371658 2.1781947613 2.1781947613  -999.250000
 1345.5000000  -999.250000  -999.250000 2.4011921883 2.4011921883 77.793014526 12.065855980  -999.250000 17.776826859 17.776826859 2.1170480251 2.1170480251  -999.250000
 1346.0000000  -999.250000  -999.250000 2.4605624676 2.4605624676 75.336357117 10.723750114  -999.250000 17.736894608 17.736894608 1.9587708712 1.9587708712  -999.250000
 1346.5000000  -999.250000  -999.250000 2.4225091934 2.4225091934 78.107292175 10.844794273  -999.250000 17.879890442 17.879890442 1.9799607992 1.9799607992  -999.250000
 1347.0000000  -999.250000  -999.250000 2.5290000439 2.5290000439 74.330917358 8.8803195953  -999.250000 17.747999191 17.747999191 2.1482138634 2.1482138634  -999.250000
 1347.5000000  -999.250000  -999.250000 2.4808638096 2.4808638096 76.704574585 11.673812866  -999.250000 17.752727509 17.752727509 2.2219533920 2.2219533920  -999.250000
 1348.0000000  -999.250000  -999.250000 2.5071828365 2.5071828365 76.228767395 11.987192154  -999.250000 17.768730164 17.768730164 2.2190001011 2.2190001011  -999.250000
 1348.5000000  -999.250000  -999.250000 2.5127725601 2.5127725601 77.080650330 11.351343155  -999.250000 17.815101624 17.815101624 2.2164492607 2.2164492607  -999.250000
 1349.0000000  -999.250000  -999.250000 2.5092356205 2.5092356205 77.682701111 12.215264320  -999.250000 17.867237091 17.867237091 2.1361756325 2.1361756325  -999.250000
 1349.5000000  -999.250000  -999.250000 2.5088076591 2.5088076591 77.861549377 12.403794289  -999.250000 17.916948318 17.916948318 2.1368975639 2.1368975639  -999.250000
 1350.0000000  -999.250000  -999.250000 2.5287885666 2.5287885666 77.792236328 12.389014244  -999.250000 18.101661682 18.101661682 2.2603669167 2.2603669167  -999.250000
 1350.5000000  -999.250000  -999.250000 2.5351281166 2.5351281166 77.416908264 11.345915794  -999.250000 18.111999512 18.111999512 2.2989032269 2.2989032269  -999.250000
 1351.0000000  -999.250000  -999.250000 2.5086827278 2.5086827278 76.783966064 11.113867760  -999.250000 18.108169556 18.108169556 2.2334856987 2.2334856987  -999.250000
 1351.5000000  -999.250000  -999.250000 2.4333257675 2.4333257675 77.619834900 10.935740471  -999.250000 18.115945816 18.115945816 2.1212320328 2.1212320328  -999.250000
 1352.0000000  -999.250000  -999.250000 2.4917373657 2.4917373657 78.886131287 9.8676471710  -999.250000 18.325025558 18.325025558 2.1098206043 2.1098206043  -999.250000
 1352.5000000  -999.250000  -999.250000 2.4955654144 2.4955654144 78.581306458 11.642725945  -999.250000 18.313022614 18.313022614 2.2231824398 2.2231824398  -999.250000
 1353.0000000  -999.250000  -999.250000 2.5091891289 2.5091891289 76.476928711 13.021011353  -999.250000 18.220323563 18.220323563 2.2889599800 2.2889599800  -999.250000
 1353.5000000  -999.250000  -999.250000 2.5118701458 2.5118701458 76.462509155 12.566357613  -999.250000 18.216934204 18.216934204 2.3488445282 2.3488445282  -999.250000
 1354.0000000  -999.250000  -999.250000 2.5316009521 2.5316009521 76.801856995 12.547731400  -999.250000 18.215398788 18.215398788 2.3734567165 2.3734567165  -999.250000
 1354.5000000  -999.250000  -999.250000 2.4789440632 2.4789440632 75.961502075 11.914283752  -999.250000 18.190433502 18.190433502 2.3311488628 2.3311488628  -999.250000
 1355.0000000  -999.250000  -999.250000 2.4605536461 2.4605536461 79.892593384 12.158205986  -999.250000 18.470300674 18.470300674 2.2074880600 2.2074880600  -999.250000
 1355.5000000  -999.250000  -999.250000 2.5053563118 2.5053563118 76.795021057 12.182152748  -999.250000 18.101997375 18.101997375 2.0933580399 2.0933580399  -999.250000
 1356.0000000  -999.250000  -999.250000 2.5151569843 2.5151569843 77.973281860 12.378205299  -999.250000 18.190185547 18.190185547 2.0672595501 2.0672595501  -999.250000
 1356.5000000  -999.250000  -999.250000 2.4731431007 2.4731431007 78.101707458 12.518933296  -999.250000 18.080915451 18.080915451 2.0724282265 2.0724282265  -999.250000
 1357.0000000  -999.250000  -999.250000 2.4986033440 2.4986033440 78.130790710 11.830692291  -999.250000 18.109006882 18.109006882 2.0550024509 2.0550024509  -999.250000
 1357.5000000  -999.250000  -999.250000 2.4895980358 2.4895980358 77.746543884 10.620427132  -999.250000 18.063293457 18.063293457 2.0469999313 2.0469999313  -999.250000
 1358.0000000  -999.250000  -999.250000 2.4892835617 2.4892835617 75.373847961 11.598405838  -999.250000 17.936298370 17.936298370 2.0447611809 2.0447611809  -999.250000
 1358.5000000  -999.250000  -999.250000 2.4890000820 2.4890000820 76.298416138 13.434249878  -999.250000 17.850582123 17.850582123 2.0399582386 2.0399582386  -999.250000
 1359.0000000  -999.250000  -999.250000 2.4581563473 2.4581563473 77.625625610 12.201739311  -999.250000 17.809093475 17.809093475 2.0077602863 2.0077602863  -999.250000
 1359.5000000  -999.250000  -999.250000 2.4341151714 2.4341151714 81.511276245 12.440068245  -999.250000 17.922510147 17.922510147 1.9352257252 1.9352257252  -999.250000
 1360.0000000  -999.250000  -999.250000 2.4481921196 2.4481921196 77.572959900 12.168692589  -999.250000 17.634653091 17.634653091 1.9335384369 1.9335384369  -999.250000
 1360.5000000  -999.250000  -999.250000 2.4612820148 2.4612820148 78.663024902 11.739108086  -999.250000 17.601280212 17.601280212 1.9631458521 1.9631458521  -999.250000
 1361.0000000  -999.250000  -999.250000 2.4765367508 2.4765367508 75.316184998 11.204999924  -999.250000 17.434394836 17.434394836 2.0258190632 2.0258190632  -999.250000
 1361.5000000  -999.250000  -999.250000 2.4837269783 2.4837269783 74.402633667 10.404952049  -999.250000 17.364099503 17.364099503 2.0951745510 2.0951745510  -999.250000
 1362.0000000  -999.250000  -999.250000 2.5030319691 2.5030319691 75.563179016 11.266869545  -999.250000 17.333152771 17.333152771 2.2629759312 2.2629759312  -999.250000
 1362.5000000  -999.250000  -999.250000 2.4808268547 2.4808268547 75.009925842 12.590480804  -999.250000 17.276634216 17.276634216 2.1997692585 2.1997692585  -999.250000
 1363.0000000  -999.250000  -999.250000 2.5005576611 2.5005576611 77.288497925 13.172872543  -999.250000 17.543554306 17.543554306 2.1447210312 2.1447210312  -999.250000
 1363.5000000  -999.250000  -999.250000 2.5037486553 2.5037486553 77.540885925 12.409078598  -999.250000 17.145641327 17.145641327 2.1375989914 2.1375989914  -999.250000
 1364.0000000  -999.250000  -999.250000 2.5297069550 2.5297069550 76.471313477 11.200199127  -999.250000 17.136999130 17.136999130 2.1584444046 2.1584444046  -999.250000
 1364.5000000  -999.250000  -999.250000 2.5162932873 2.5162932873 75.491722107 12.878620148  -999.250000 17.131940842 17.131940842 2.2413558960 2.2413558960  -999.250000
 1365.0000000  -999.250000  -999.250000 2.5062966347 2.5062966347 76.219421387 12.283291817  -999.250000 17.113147736 17.113147736 2.3029310703 2.3029310703  -999.250000
 1365.5000000  -999.250000  -999.250000 2.4959208965 2.4959208965 77.319953918 12.179607391  -999.250000 17.065608978 17.065608978 2.3200528622 2.3200528622  -999.250000
 1366.0000000  -999.250000  -999.250000 2.5306899548 2.5306899548 76.650161743 13.325643539  -999.250000 16.942163467 16.942163467 2.3242545128 2.3242545128  -999.250000
 1366.5000000  -999.250000  -999.250000 2.5005064011 2.5005064011 73.611053467 11.870535851  -999.250000 16.886577606 16.886577606 2.3838171959 2.3838171959  -999.250000
 1367.0000000  -999.250000  -999.250000 2.4992477894 2.4992477894 77.070739746 10.690077782  -999.250000 16.813770294 16.813770294 2.3928163052 2.3928163052  -999.250000
 1367.5000000  -999.250000  -999.250000 2.5501275063 2.5501275063 73.574592590 11.516153336  -999.250000 16.771837234 16.771837234 2.3921689987 2.3921689987  -999.250000
