# LAS format log file from PETREL
# Project units are specified as depth units
#==================================================================
~Version information
VERS.   2.0:
WRAP.   NO:
#==================================================================
~Well
STRT .m      0.0000000000 :
STOP .m      2974.0000000 :
STEP .m     0.50000000 :
NULL .        -999.250000 :
COMP.           : COMPANY
WELL.  AMR-1   : WELL
FLD.            : FIELD
LOC.            : LOCATION
SRVC.           : SERVICE COMPANY
DATE.  2022-11-03 20:42:11   : Log Export Date {yyyy-MM-dd HH:mm:ss}
PROV.           : PROVINCE
UWI.   11000075013701   : UNIQUE WELL ID
API.            : API NUMBER
#==================================================================
~Curve
DEPT .m                   : DEPTH
NEU .m3/m3                : NEU
NEUT .m3/m3               : NEUT
DENS .g/cm3               : DENS
DEN .g/cm3                : DEN
DTC_Avg2 .us/ft           : DTC_Avg2
GR .gAPI                  : GR
PORNET_NOV14 .m3/m3       : PORNET_NOV14
CALI .in                  : CALI
CAL .in                   : CAL
RESD .ohm.m               : RESD
RES_DEP .ohm.m            : RES_DEP
VCL_2014 ._               : VCL_2014
~Parameter
#==================================================================
~Ascii
# ...
 2040.0000000  -999.250000  -999.250000 2.0702116489 2.0702116489 68.444175720 12.858846664  -999.250000 10.007135391 10.007135391 1419.8450928 1419.8450928  -999.250000
 2040.5000000  -999.250000  -999.250000 2.0773220062 2.0773220062 68.608177185 12.356975555  -999.250000 9.9919996262 9.9919996262 1438.3955078 1438.3955078  -999.250000
 2041.0000000  -999.250000  -999.250000 2.0719430447 2.0719430447 68.502960205 12.402367592  -999.250000 10.010166168 10.010166168 1411.9952393 1411.9952393  -999.250000
 2041.5000000  -999.250000  -999.250000 2.0847012997 2.0847012997 68.242645264 12.283376694  -999.250000 10.004330635 10.004330635 1442.9215088 1442.9215088  -999.250000
 2042.0000000  -999.250000  -999.250000 2.0776953697 2.0776953697 67.991394043 12.371380806  -999.250000 9.9969997406 9.9969997406 1384.2069092 1384.2069092  -999.250000
 2042.5000000  -999.250000  -999.250000 2.0980768204 2.0980768204 68.193458557 14.740384102  -999.250000 9.9913072586 9.9913072586 1439.8892822 1439.8892822  -999.250000
 2043.0000000  -999.250000  -999.250000 2.0965361595 2.0965361595 68.537513733 13.285199165  -999.250000 9.9874877930 9.9874877930 1446.4591064 1446.4591064  -999.250000
 2043.5000000  -999.250000  -999.250000 2.1089999676 2.1089999676 68.401679993 10.476611137  -999.250000 9.9930000305 9.9930000305 1435.7174072 1435.7174072  -999.250000
 2044.0000000  -999.250000  -999.250000 2.0817790031 2.0817790031 68.087936401 11.976713181  -999.250000 9.9907054901 9.9907054901 1416.2148438 1416.2148438  -999.250000
 2044.5000000  -999.250000  -999.250000 2.0785832405 2.0785832405 68.439460754 12.315145493  -999.250000 9.9765834808 9.9765834808 1465.7131348 1465.7131348  -999.250000
 2045.0000000  -999.250000  -999.250000 2.0944478512 2.0944478512 68.630241394 10.207156181  -999.250000 9.9717292786 9.9717292786 1468.0546875 1468.0546875  -999.250000
 2045.5000000  -999.250000  -999.250000 2.0960841179 2.0960841179 68.431678772 13.325074196  -999.250000 9.9699163437 9.9699163437 1486.0308838 1486.0308838  -999.250000
 2046.0000000  -999.250000  -999.250000 2.0928030014 2.0928030014 68.496017456 14.584566116  -999.250000 9.9745912552 9.9745912552 1490.8737793 1490.8737793  -999.250000
 2046.5000000  -999.250000  -999.250000 2.0950448513 2.0950448513 68.783027649 11.736840248  -999.250000 9.9864320755 9.9864320755 1482.4763184 1482.4763184  -999.250000
 2047.0000000  -999.250000  -999.250000 2.1040353775 2.1040353775 68.372299194 11.296777725  -999.250000 9.9880352020 9.9880352020 1439.5860596 1439.5860596  -999.250000
 2047.5000000  -999.250000  -999.250000 2.0858821869 2.0858821869 68.031684875 12.917164803  -999.250000 10.005235672 10.005235672 1462.8629150 1462.8629150  -999.250000
 2048.0000000  -999.250000  -999.250000 2.0937180519 2.0937180519 68.379844666 12.895076752  -999.250000 10.009717941 10.009717941 1455.6473389 1455.6473389  -999.250000
 2048.5000000  -999.250000  -999.250000 2.0861923695 2.0861923695 68.791366577 12.148639679  -999.250000 10.001000404 10.001000404 1468.8970947 1468.8970947  -999.250000
 2049.0000000  -999.250000  -999.250000 2.0815265179 2.0815265179 68.393394470 12.157265663  -999.250000 9.9969997406 9.9969997406 1472.3203125 1472.3203125  -999.250000
 2049.5000000  -999.250000  -999.250000 2.0741424561 2.0741424561 68.629837036 10.333142281  -999.250000 9.9995107651 9.9995107651 1443.4749756 1443.4749756  -999.250000
 2050.0000000  -999.250000  -999.250000 2.0877804756 2.0877804756 68.304931641 13.130874634  -999.250000 9.9946680069 9.9946680069 1455.1083984 1455.1083984  -999.250000
 2050.5000000  -999.250000  -999.250000 2.0857243538 2.0857243538 68.555564880 13.553256989  -999.250000 9.9841022491 9.9841022491 1434.4017334 1434.4017334  -999.250000
 2051.0000000  -999.250000  -999.250000 2.0790288448 2.0790288448 68.419853210 13.018850327  -999.250000 9.9809999466 9.9809999466 1442.4715576 1442.4715576  -999.250000
 2051.5000000  -999.250000  -999.250000 2.0917184353 2.0917184353 68.533035278 14.416475296  -999.250000 9.9831409454 9.9831409454 1367.1322021 1367.1322021  -999.250000
 2052.0000000  -999.250000  -999.250000 2.0899999142 2.0899999142 68.634681702 12.588490486  -999.250000 9.9838647842 9.9838647842 1424.1324463 1424.1324463  -999.250000
 2052.5000000  -999.250000  -999.250000 2.0896089077 2.0896089077 68.453117371 13.994743347  -999.250000 9.9836959839 9.9836959839 1487.9082031 1487.9082031  -999.250000
 2053.0000000  -999.250000  -999.250000 2.0876410007 2.0876410007 68.192459106 13.366513252  -999.250000 9.9849996567 9.9849996567 1396.0743408 1396.0743408  -999.250000
 2053.5000000  -999.250000  -999.250000 2.0853614807 2.0853614807 68.445083618 13.836492538  -999.250000 9.9849996567 9.9849996567 1436.0839844 1436.0839844  -999.250000
 2054.0000000  -999.250000  -999.250000 2.0830721855 2.0830721855 68.686370850 12.212631226  -999.250000 9.9890003204 9.9890003204 1357.9932861 1357.9932861  -999.250000
 2054.5000000  -999.250000  -999.250000 2.1060864925 2.1060864925 68.770141602 13.115740776  -999.250000 9.9929132462 9.9929132462 1364.3587646 1364.3587646  -999.250000
 2055.0000000  -999.250000  -999.250000 2.0905032158 2.0905032158 68.735733032 15.096614838  -999.250000 9.9897480011 9.9897480011 1379.8439941 1379.8439941  -999.250000
 2055.5000000  -999.250000  -999.250000 2.0978686810 2.0978686810 68.678283691 14.181241035  -999.250000 9.9844675064 9.9844675064 1383.7963867 1383.7963867  -999.250000
 2056.0000000  -999.250000  -999.250000 2.0938141346 2.0938141346 68.501182556 10.833051682  -999.250000 9.9809293747 9.9809293747 1321.4785156 1321.4785156  -999.250000
 2056.5000000  -999.250000  -999.250000 2.0882434845 2.0882434845 68.712051392 13.695434570  -999.250000 9.9671888351 9.9671888351 1307.8326416 1307.8326416  -999.250000
 2057.0000000  -999.250000  -999.250000 2.0810000896 2.0810000896 68.775375366 14.134125710  -999.250000 9.9737501144 9.9737501144 1323.8602295 1323.8602295  -999.250000
 2057.5000000  -999.250000  -999.250000 2.1006560326 2.1006560326 68.683105469 12.927184105  -999.250000 9.9803123474 9.9803123474 1354.6560059 1354.6560059  -999.250000
 2058.0000000  -999.250000  -999.250000 2.0870623589 2.0870623589 68.412498474 12.623312950  -999.250000 9.9801874161 9.9801874161 1357.2453613 1357.2453613  -999.250000
 2058.5000000  -999.250000  -999.250000 2.0956921577 2.0956921577 68.485496521 12.227012634  -999.250000 9.9732179642 9.9732179642 1359.6821289 1359.6821289  -999.250000
 2059.0000000  -999.250000  -999.250000 2.0890030861 2.0890030861 68.533538818 11.868468285  -999.250000 9.9859933853 9.9859933853 1347.1910400 1347.1910400  -999.250000
 2059.5000000  -999.250000  -999.250000 2.0771040916 2.0771040916 68.484382629 12.077527046  -999.250000 9.9958953857 9.9958953857 1349.4938965 1349.4938965  -999.250000
 2060.0000000  -999.250000  -999.250000 2.0779392719 2.0779392719 68.598838806 14.050709724  -999.250000 10.020182610 10.020182610 1354.6998291 1354.6998291  -999.250000
 2060.5000000  -999.250000  -999.250000 2.0879518986 2.0879518986 68.326889038 15.016418457  -999.250000 10.026023865 10.026023865 1356.4918213 1356.4918213  -999.250000
 2061.0000000  -999.250000  -999.250000 2.0838654041 2.0838654041 68.383956909 13.444063187  -999.250000 10.034243584 10.034243584 1373.0844727 1373.0844727  -999.250000
 2061.5000000  -999.250000  -999.250000 2.0883903503 2.0883903503 68.729736328 11.850795746  -999.250000 10.029390335 10.029390335 1389.0501709 1389.0501709  -999.250000
 2062.0000000  -999.250000  -999.250000 2.0811841488 2.0811841488 68.285484314 11.609863281  -999.250000 10.031104088 10.031104088 1385.2384033 1385.2384033  -999.250000
 2062.5000000  -999.250000  -999.250000 2.0840704441 2.0840704441 68.262504578 12.716259956  -999.250000 10.034422874 10.034422874 1371.0500488 1371.0500488  -999.250000
 2063.0000000  -999.250000  -999.250000 2.0785095692 2.0785095692 68.345123291 13.006130219  -999.250000 9.9895858765 9.9895858765 1384.2904053 1384.2904053  -999.250000
 2063.5000000  -999.250000  -999.250000 2.0771794319 2.0771794319 68.449256897 12.073282242  -999.250000 9.9850769043 9.9850769043 1383.2463379 1383.2463379  -999.250000
