# LAS format log file from PETREL
# Project units are specified as depth units
#==================================================================
~Version information
VERS.   2.0:
WRAP.   NO:
#==================================================================
~Well
STRT .m      0.0000000000 :
STOP .m      2974.0000000 :
STEP .m     0.50000000 :
NULL .        -999.250000 :
COMP.           : COMPANY
WELL.  AMR-1   : WELL
FLD.            : FIELD
LOC.            : LOCATION
SRVC.           : SERVICE COMPANY
DATE.  2022-11-03 20:42:11   : Log Export Date {yyyy-MM-dd HH:mm:ss}
PROV.           : PROVINCE
UWI.   11000075013701   : UNIQUE WELL ID
API.            : API NUMBER
#==================================================================
~Curve
DEPT .m                   : DEPTH
NEU .m3/m3                : NEU
NEUT .m3/m3               : NEUT
DENS .g/cm3               : DENS
DEN .g/cm3                : DEN
DTC_Avg2 .us/ft           : DTC_Avg2
GR .gAPI                  : GR
PORNET_NOV14 .m3/m3       : PORNET_NOV14
CALI .in                  : CALI
CAL .in                   : CAL
RESD .ohm.m               : RESD
RES_DEP .ohm.m            : RES_DEP
VCL_2014 ._               : VCL_2014
~Parameter
#==================================================================
~Ascii
# ...
 816.00000000  -999.250000  -999.250000 1.9443459511 1.9443459511 114.84783173 8.8539266586  -999.250000 20.027662277 20.027662277 0.2996539772 0.2996539772  -999.250000
 816.50000000  -999.250000  -999.250000 2.0021882057 2.0021882057 112.26352692 8.0931730270  -999.250000 20.034223557 20.034223557 0.2971653938 0.2971653938  -999.250000
 817.00000000  -999.250000  -999.250000 2.0100467205 2.0100467205 111.78977203 8.6547689438  -999.250000 20.034999847 20.034999847 0.2787541151 0.2787541151  -999.250000
 817.50000000  -999.250000  -999.250000 1.9627457857 1.9627457857 118.04648590 9.4059600830  -999.250000 20.034999847 20.034999847 0.2753468156 0.2753468156  -999.250000
 818.00000000  -999.250000  -999.250000 1.9444586039 1.9444586039 117.74221039 9.5283403397  -999.250000 20.034999847 20.034999847 0.2867248654 0.2867248654  -999.250000
 818.50000000  -999.250000  -999.250000 2.0442278385 2.0442278385 112.48249817 8.1113271713  -999.250000 20.031795502 20.031795502 0.3133488297 0.3133488297  -999.250000
 819.00000000  -999.250000  -999.250000 2.0690937042 2.0690937042 109.72912598 7.6304955482  -999.250000 20.034999847 20.034999847 0.3390468359 0.3390468359  -999.250000
 819.50000000  -999.250000  -999.250000 2.0831546783 2.0831546783 109.25904083 8.4758625031  -999.250000 20.037593842 20.037593842 0.3401097357 0.3401097357  -999.250000
 820.00000000  -999.250000  -999.250000 2.0580701828 2.0580701828 111.51506805 9.5991258621  -999.250000 20.035577774 20.035577774 0.3268450201 0.3268450201  -999.250000
 820.50000000  -999.250000  -999.250000 2.0515747070 2.0515747070 111.31545258 7.4797639847  -999.250000 20.038999557 20.038999557 0.3167088628 0.3167088628  -999.250000
 821.00000000  -999.250000  -999.250000 2.0248882771 2.0248882771 113.56107330 7.3564472198  -999.250000 20.038999557 20.038999557 0.2994441390 0.2994441390  -999.250000
 821.50000000  -999.250000  -999.250000 2.0193607807 2.0193607807 115.47167206 8.0041656494  -999.250000 20.041839600 20.041839600 0.2949999869 0.2949999869  -999.250000
 822.00000000  -999.250000  -999.250000 2.0285041332 2.0285041332 113.99521637 7.7625975609  -999.250000 20.050804138 20.050804138 0.3028033674 0.3028033674  -999.250000
 822.50000000  -999.250000  -999.250000 2.0478711128 2.0478711128 112.23735809 6.5318999290  -999.250000 20.060981750 20.060981750 0.3198894560 0.3198894560  -999.250000
 823.00000000  -999.250000  -999.250000 2.0843768120 2.0843768120 111.30802155 8.3207330704  -999.250000 20.062999725 20.062999725 0.3392623067 0.3392623067  -999.250000
 823.50000000  -999.250000  -999.250000 2.0491957664 2.0491957664 109.45957184 7.5864710808  -999.250000 20.062999725 20.062999725 0.3353696465 0.3353696465  -999.250000
 824.00000000  -999.250000  -999.250000 2.0209887028 2.0209887028 113.40925598 8.0045604706  -999.250000 20.066823959 20.066823959 0.3222306967 0.3222306967  -999.250000
 824.50000000  -999.250000  -999.250000 1.9436916113 1.9436916113 117.75208282 8.7828216553  -999.250000 20.066055298 20.066055298 0.3058950603 0.3058950603  -999.250000
 825.00000000  -999.250000  -999.250000 1.9897133112 1.9897133112 114.75283813 7.5558938980  -999.250000 20.047286987 20.047286987 0.3039999902 0.3039999902  -999.250000
 825.50000000  -999.250000  -999.250000 2.0123360157 2.0123360157 113.95301056 9.7747888565  -999.250000 20.032333374 20.032333374 0.3059999943 0.3059999943  -999.250000
 826.00000000  -999.250000  -999.250000 2.0071573257 2.0071573257 116.09121704 9.2265501022  -999.250000 20.038999557 20.038999557 0.3021049201 0.3021049201  -999.250000
 826.50000000  -999.250000  -999.250000 1.9980323315 1.9980323315 114.25167847 9.0143899918  -999.250000 20.034086227 20.034086227 0.2980000079 0.2980000079  -999.250000
 827.00000000  -999.250000  -999.250000 1.9713287354 1.9713287354 112.69756317 8.1355390549  -999.250000 20.018945694 20.018945694 0.2944909930 0.2944909930  -999.250000
 827.50000000  -999.250000  -999.250000 1.9400492907 1.9400492907 119.76071930 8.9007644653  -999.250000 20.028902054 20.028902054 0.2937901616 0.2937901616  -999.250000
 828.00000000  -999.250000  -999.250000 1.9096151590 1.9096151590 117.87049103 8.0463142395  -999.250000 20.065851212 20.065851212 0.2926455736 0.2926455736  -999.250000
 828.50000000  -999.250000  -999.250000 1.9872967005 1.9872967005 113.99938202 8.9873304367  -999.250000 20.093109131 20.093109131 0.2833516300 0.2833516300  -999.250000
 829.00000000  -999.250000  -999.250000 1.9808970690 1.9808970690 114.12238312 7.7974805832  -999.250000 20.103000641 20.103000641 0.2984265089 0.2984265089  -999.250000
 829.50000000  -999.250000  -999.250000 2.0156643391 2.0156643391 113.51986694 8.7871809006  -999.250000 20.087692261 20.087692261 0.3136540055 0.3136540055  -999.250000
 830.00000000  -999.250000  -999.250000 2.0391654968 2.0391654968 113.09664917 9.6714715958  -999.250000 20.050893784 20.050893784 0.3249999881 0.3249999881  -999.250000
 830.50000000  -999.250000  -999.250000 2.0378499031 2.0378499031 113.70002747 8.9322919846  -999.250000 20.006200790 20.006200790 0.3284749687 0.3284749687  -999.250000
 831.00000000  -999.250000  -999.250000 2.0371959209 2.0371959209 113.50788879 7.0954484940  -999.250000 20.003780365 20.003780365 0.3131959140 0.3131959140  -999.250000
 831.50000000  -999.250000  -999.250000 2.0250000954 2.0250000954 115.18323517 9.3456640244  -999.250000 20.019073486 20.019073486 0.2959263027 0.2959263027  -999.250000
 832.00000000  -999.250000  -999.250000 2.0299527645 2.0299527645 115.78493500 10.829143524  -999.250000 20.028953552 20.028953552 0.2910000086 0.2910000086  -999.250000
 832.50000000  -999.250000  -999.250000 2.0387949944 2.0387949944 116.44627380 9.9845438004  -999.250000 20.034393311 20.034393311 0.2999915779 0.2999915779  -999.250000
 833.00000000  -999.250000  -999.250000 2.0423617363 2.0423617363 114.54148865 9.0118513107  -999.250000 20.038999557 20.038999557 0.3131205738 0.3131205738  -999.250000
 833.50000000  -999.250000  -999.250000 2.0687232018 2.0687232018 114.20870972 10.210989952  -999.250000 20.038999557 20.038999557 0.3208009601 0.3208009601  -999.250000
 834.00000000  -999.250000  -999.250000 2.1004726887 2.1004726887 111.28005219 8.7676744461  -999.250000 20.038999557 20.038999557 0.3330000043 0.3330000043  -999.250000
 834.50000000  -999.250000  -999.250000 2.0851135254 2.0851135254 110.70322418 9.0967998505  -999.250000 20.038999557 20.038999557 0.3248350024 0.3248350024  -999.250000
 835.00000000  -999.250000  -999.250000 2.0569915771 2.0569915771 112.33034515 9.8839378357  -999.250000 20.040008545 20.040008545 0.3220027983 0.3220027983  -999.250000
 835.50000000  -999.250000  -999.250000 2.0351493359 2.0351493359 113.70267487 9.1445398331  -999.250000 20.049135208 20.049135208 0.3227164745 0.3227164745  -999.250000
 836.00000000  -999.250000  -999.250000 2.0399999619 2.0399999619 113.69006348 9.5021228790  -999.250000 20.064514160 20.064514160 0.3210000098 0.3210000098  -999.250000
 836.50000000  -999.250000  -999.250000 2.0597600937 2.0597600937 112.74625397 9.2546501160  -999.250000 20.089914322 20.089914322 0.3295350373 0.3295350373  -999.250000
 837.00000000  -999.250000  -999.250000 2.0845046043 2.0845046043 110.32789612 10.764054298  -999.250000 20.094873428 20.094873428 0.3443784714 0.3443784714  -999.250000
 837.50000000  -999.250000  -999.250000 2.0877792835 2.0877792835 110.29052734 9.1604022980  -999.250000 19.943483353 19.943483353 0.3606275618 0.3606275618  -999.250000
 838.00000000  -999.250000  -999.250000 2.0963122845 2.0963122845 109.65386200 8.7354936600  -999.250000 19.820686340 19.820686340 0.3616247475 0.3616247475  -999.250000
 838.50000000  -999.250000  -999.250000 2.0712215900 2.0712215900 110.29941559 8.8513145447  -999.250000 19.797285080 19.797285080 0.3570632637 0.3570632637  -999.250000
 839.00000000  -999.250000  -999.250000 2.0807504654 2.0807504654 110.29715729 8.1356172562  -999.250000 19.725015640 19.725015640 0.3395029902 0.3395029902  -999.250000
 839.50000000  -999.250000  -999.250000 2.0852882862 2.0852882862 110.53772736 7.3167691231  -999.250000 19.672470093 19.672470093 0.3319999874 0.3319999874  -999.250000
