# LAS format log file from PETREL
# Project units are specified as depth units
#==================================================================
~Version information
VERS.   2.0:
WRAP.   NO:
#==================================================================
~Well
STRT .m      0.0000000000 :
STOP .m      2974.0000000 :
STEP .m     0.50000000 :
NULL .        -999.250000 :
COMP.           : COMPANY
WELL.  AMR-1   : WELL
FLD.            : FIELD
LOC.            : LOCATION
SRVC.           : SERVICE COMPANY
DATE.  2022-11-03 20:42:11   : Log Export Date {yyyy-MM-dd HH:mm:ss}
PROV.           : PROVINCE
UWI.   11000075013701   : UNIQUE WELL ID
API.            : API NUMBER
#==================================================================
~Curve
DEPT .m                   : DEPTH
NEU .m3/m3                : NEU
NEUT .m3/m3               : NEUT
DENS .g/cm3               : DENS
DEN .g/cm3                : DEN
DTC_Avg2 .us/ft           : DTC_Avg2
GR .gAPI                  : GR
PORNET_NOV14 .m3/m3       : PORNET_NOV14
CALI .in                  : CALI
CAL .in                   : CAL
RESD .ohm.m               : RESD
RES_DEP .ohm.m            : RES_DEP
VCL_2014 ._               : VCL_2014
~Parameter
#==================================================================
~Ascii
# ...
 1176.0000000  -999.250000  -999.250000 2.3041536808 2.3041536808 87.847152710 6.7696409225  -999.250000 20.006999969 20.006999969 0.5440833569 0.5440833569  -999.250000
 1176.5000000  -999.250000  -999.250000 2.2468347549 2.2468347549 93.528503418 7.0938029289  -999.250000 20.006999969 20.006999969 0.4847523868 0.4847523868  -999.250000
 1177.0000000  -999.250000  -999.250000 2.2129695415 2.2129695415 94.454193115 7.3693251610  -999.250000 20.003000259 20.003000259 0.4568725824 0.4568725824  -999.250000
 1177.5000000  -999.250000  -999.250000 2.2780928612 2.2780928612 90.344062805 9.5451822281  -999.250000 19.999000549 19.999000549 0.5001569390 0.5001569390  -999.250000
 1178.0000000  -999.250000  -999.250000 2.3161442280 2.3161442280 88.285682678 8.2615289688  -999.250000 19.998340607 19.998340607 0.5471009612 0.5471009612  -999.250000
 1178.5000000  -999.250000  -999.250000 2.2942187786 2.2942187786 87.043037415 7.9478821754  -999.250000 19.991239548 19.991239548 0.6173388958 0.6173388958  -999.250000
 1179.0000000  -999.250000  -999.250000 2.3510000706 2.3510000706 85.136253357 7.7688980103  -999.250000 19.982999802 19.982999802 0.6292371750 0.6292371750  -999.250000
 1179.5000000  -999.250000  -999.250000 2.3144724369 2.3144724369 88.792304993 7.1941919327  -999.250000 19.985502243 19.985502243 0.5749807954 0.5749807954  -999.250000
 1180.0000000  -999.250000  -999.250000 2.2824742794 2.2824742794 89.002998352 8.4544487000  -999.250000 19.990999222 19.990999222 0.5306153893 0.5306153893  -999.250000
 1180.5000000  -999.250000  -999.250000 2.2730512619 2.2730512619 91.450874329 8.2375793457  -999.250000 19.986999512 19.986999512 0.4821144938 0.4821144938  -999.250000
 1181.0000000  -999.250000  -999.250000 2.2262187004 2.2262187004 95.571754456 7.1360626221  -999.250000 19.986999512 19.986999512 0.4415625036 0.4415625036  -999.250000
 1181.5000000  -999.250000  -999.250000 2.2468695641 2.2468695641 93.912155151 6.5753469467  -999.250000 19.986999512 19.986999512 0.4239999950 0.4239999950  -999.250000
 1182.0000000  -999.250000  -999.250000 2.2740945816 2.2740945816 92.052276611 6.3445963860  -999.250000 19.986999512 19.986999512 0.4508653879 0.4508653879  -999.250000
 1182.5000000  -999.250000  -999.250000 2.3015596867 2.3015596867 89.241584778 7.3990831375  -999.250000 19.982999802 19.982999802 0.4890520275 0.4890520275  -999.250000
 1183.0000000  -999.250000  -999.250000 2.2619271278 2.2619271278 92.291412354 7.2078671455  -999.250000 19.978532791 19.978532791 0.4936570525 0.4936570525  -999.250000
 1183.5000000  -999.250000  -999.250000 2.2520086765 2.2520086765 91.824142456 7.9375100136  -999.250000 19.971757889 19.971757889 0.4772433937 0.4772433937  -999.250000
 1184.0000000  -999.250000  -999.250000 2.2387692928 2.2387692928 89.614082336 8.7375001907  -999.250000 19.968000412 19.968000412 0.4819711447 0.4819711447  -999.250000
 1184.5000000  -999.250000  -999.250000 2.2406899929 2.2406899929 91.040931702 7.7215709686  -999.250000 19.968929291 19.968929291 0.5021689534 0.5021689534  -999.250000
 1185.0000000  -999.250000  -999.250000 2.2578582764 2.2578582764 89.402694702 7.1410393715  -999.250000 19.977771759 19.977771759 0.5079526901 0.5079526901  -999.250000
 1185.5000000  -999.250000  -999.250000 2.2622890472 2.2622890472 87.675445557 7.3342041969  -999.250000 19.982742310 19.982742310 0.5499687791 0.5499687791  -999.250000
 1186.0000000  -999.250000  -999.250000 2.2439582348 2.2439582348 88.673881531 7.8996491432  -999.250000 19.991304398 19.991304398 0.5701105595 0.5701105595  -999.250000
 1186.5000000  -999.250000  -999.250000 2.3057646751 2.3057646751 82.519439697 8.1097974777  -999.250000 20.001298904 20.001298904 0.6672618389 0.6672618389  -999.250000
 1187.0000000  -999.250000  -999.250000 2.3267092705 2.3267092705 81.912300110 7.1450452805  -999.250000 20.003000259 20.003000259 0.7404206395 0.7404206395  -999.250000
 1187.5000000  -999.250000  -999.250000 2.2890841961 2.2890841961 85.599761963 7.9930343628  -999.250000 20.003000259 20.003000259 0.7590224147 0.7590224147  -999.250000
 1188.0000000  -999.250000  -999.250000 2.3023397923 2.3023397923 84.199150085 8.9428653717  -999.250000 20.003000259 20.003000259 0.7160384655 0.7160384655  -999.250000
 1188.5000000  -999.250000  -999.250000 2.3114435673 2.3114435673 87.657623291 7.0486941338  -999.250000 19.999000549 19.999000549 0.6414195299 0.6414195299  -999.250000
 1189.0000000  -999.250000  -999.250000 2.3144400120 2.3144400120 86.654846191 8.0621967316  -999.250000 19.998674393 19.998674393 0.5605785251 0.5605785251  -999.250000
 1189.5000000  -999.250000  -999.250000 2.2277643681 2.2277643681 91.076133728 8.3752508163  -999.250000 19.995000839 19.995000839 0.5080577135 0.5080577135  -999.250000
 1190.0000000  -999.250000  -999.250000 2.2595913410 2.2595913410 89.601799011 7.6275959015  -999.250000 19.995000839 19.995000839 0.5035961270 0.5035961270  -999.250000
 1190.5000000  -999.250000  -999.250000 2.2655556202 2.2655556202 86.535461426 7.6923027039  -999.250000 19.995000839 19.995000839 0.5303987265 0.5303987265  -999.250000
 1191.0000000  -999.250000  -999.250000 2.3127250671 2.3127250671 87.868186951 7.8641939163  -999.250000 19.995000839 19.995000839 0.5549215078 0.5549215078  -999.250000
 1191.5000000  -999.250000  -999.250000 2.2920000553 2.2920000553 87.289215088 8.1684122086  -999.250000 19.995000839 19.995000839 0.5495176315 0.5495176315  -999.250000
 1192.0000000  -999.250000  -999.250000 2.2603719234 2.2603719234 90.964897156 8.0200834274  -999.250000 19.999000549 19.999000549 0.5186409950 0.5186409950  -999.250000
 1192.5000000  -999.250000  -999.250000 2.1984090805 2.1984090805 93.352058411 7.7338972092  -999.250000 19.999000549 19.999000549 0.4803787172 0.4803787172  -999.250000
 1193.0000000  -999.250000  -999.250000 2.2537655830 2.2537655830 89.181816101 7.4930634499  -999.250000 19.999000549 19.999000549 0.4749999940 0.4749999940  -999.250000
 1193.5000000  -999.250000  -999.250000 2.2902708054 2.2902708054 89.018569946 7.1334686279  -999.250000 20.003000259 20.003000259 0.4872812629 0.4872812629  -999.250000
 1194.0000000  -999.250000  -999.250000 2.2822291851 2.2822291851 88.954353333 8.6210412979  -999.250000 20.012104034 20.012104034 0.5230416656 0.5230416656  -999.250000
 1194.5000000  -999.250000  -999.250000 2.3044843674 2.3044843674 88.409027100 6.5090503693  -999.250000 20.008853912 20.008853912 0.5587053895 0.5587053895  -999.250000
 1195.0000000  -999.250000  -999.250000 2.3420000076 2.3420000076 86.533172607 6.5613474846  -999.250000 20.006378174 20.006378174 0.6067694426 0.6067694426  -999.250000
 1195.5000000  -999.250000  -999.250000 2.3622643948 2.3622643948 85.115585327 7.9709181786  -999.250000 20.003000259 20.003000259 0.6887596250 0.6887596250  -999.250000
 1196.0000000  -999.250000  -999.250000 2.3346152306 2.3346152306 85.063690186 6.6999230385  -999.250000 20.003000259 20.003000259 0.6520000100 0.6520000100  -999.250000
 1196.5000000  -999.250000  -999.250000 2.2569999695 2.2569999695 88.583961487 7.4916234016  -999.250000 20.006999969 20.006999969 0.5799567103 0.5799567103  -999.250000
 1197.0000000  -999.250000  -999.250000 2.2866613865 2.2866613865 88.850502014 6.2968511581  -999.250000 20.003330231 20.003330231 0.5190480351 0.5190480351  -999.250000
 1197.5000000  -999.250000  -999.250000 2.2687203884 2.2687203884 88.572975159 7.7358841896  -999.250000 20.008834839 20.008834839 0.4933317304 0.4933317304  -999.250000
 1198.0000000  -999.250000  -999.250000 2.2595369816 2.2595369816 90.451995850 7.3849406242  -999.250000 20.013107300 20.013107300 0.4648589492 0.4648589492  -999.250000
 1198.5000000  -999.250000  -999.250000 2.2426924706 2.2426924706 93.647117615 7.7552690506  -999.250000 20.010999680 20.010999680 0.4412692189 0.4412692189  -999.250000
 1199.0000000  -999.250000  -999.250000 2.2071049213 2.2071049213 95.863304138 7.9904189110  -999.250000 20.010999680 20.010999680 0.4036445022 0.4036445022  -999.250000
 1199.5000000  -999.250000  -999.250000 2.1540601254 2.1540601254 99.793045044 8.4986677170  -999.250000 20.007265091 20.007265091 0.3653851151 0.3653851151  -999.250000
