# LAS format log file from PETREL
# Project units are specified as depth units
#==================================================================
~Version information
VERS.   2.0:
WRAP.   NO:
#==================================================================
~Well
STRT .m      0.0000000000 :
STOP .m      2974.0000000 :
STEP .m     0.50000000 :
NULL .        -999.250000 :
COMP.           : COMPANY
WELL.  AMR-1   : WELL
FLD.            : FIELD
LOC.            : LOCATION
SRVC.           : SERVICE COMPANY
DATE.  2022-11-03 20:42:11   : Log Export Date {yyyy-MM-dd HH:mm:ss}
PROV.           : PROVINCE
UWI.   11000075013701   : UNIQUE WELL ID
API.            : API NUMBER
#==================================================================
~Curve
DEPT .m                   : DEPTH
NEU .m3/m3                : NEU
NEUT .m3/m3               : NEUT
DENS .g/cm3               : DENS
DEN .g/cm3                : DEN
DTC_Avg2 .us/ft           : DTC_Avg2
GR .gAPI                  : GR
PORNET_NOV14 .m3/m3       : PORNET_NOV14
CALI .in                  : CALI
CAL .in                   : CAL
RESD .ohm.m               : RESD
RES_DEP .ohm.m            : RES_DEP
VCL_2014 ._               : VCL_2014
~Parameter
#==================================================================
~Ascii
# ...
 2232.0000000  -999.250000  -999.250000 2.0973205566 2.0973205566 68.486289978 10.987112045  -999.250000 9.9569997787 9.9569997787 1523.8519287 1523.8519287  -999.250000
 2232.5000000  -999.250000  -999.250000 2.0901489258 2.0901489258 68.357490540 12.406104088  -999.250000 9.9656019211 9.9656019211 1532.7326660 1532.7326660  -999.250000
 2233.0000000  -999.250000  -999.250000 2.0885384083 2.0885384083 68.023925781 10.389461517  -999.250000 9.9453077316 9.9453077316 1468.6011963 1468.6011963  -999.250000
 2233.5000000  -999.250000  -999.250000 2.0964438915 2.0964438915 68.316246033 9.5222244263  -999.250000 9.9800224304 9.9800224304 1503.5340576 1503.5340576  -999.250000
 2234.0000000  -999.250000  -999.250000 2.0926201344 2.0926201344 67.975105286 9.2416687012  -999.250000 9.9588270187 9.9588270187 1537.9908447 1537.9908447  -999.250000
 2234.5000000  -999.250000  -999.250000 2.1081473827 2.1081473827 67.797760010 11.470221519  -999.250000 9.9569263458 9.9569263458 1561.4785156 1561.4785156  -999.250000
 2235.0000000  -999.250000  -999.250000 2.0864582062 2.0864582062 68.321937561 12.123042107  -999.250000 9.9798336029 9.9798336029 1580.0690918 1580.0690918  -999.250000
 2235.5000000  -999.250000  -999.250000 2.0979037285 2.0979037285 67.914329529 12.050538063  -999.250000 9.9729232788 9.9729232788 1575.8430176 1575.8430176  -999.250000
 2236.0000000  -999.250000  -999.250000 2.1039166451 2.1039166451 68.199249268 12.621250153  -999.250000 9.9610004425 9.9610004425 1569.7459717 1569.7459717  -999.250000
 2236.5000000  -999.250000  -999.250000 2.0844230652 2.0844230652 67.599143982 10.920091629  -999.250000 9.9777736664 9.9777736664 1561.0939941 1561.0939941  -999.250000
 2237.0000000  -999.250000  -999.250000 2.0825674534 2.0825674534 67.808311462 10.209919930  -999.250000 9.9849996567 9.9849996567 1554.4638672 1554.4638672  -999.250000
 2237.5000000  -999.250000  -999.250000 2.0842740536 2.0842740536 67.893028259 9.9798059464  -999.250000 9.9729995728 9.9729995728 1542.0919189 1542.0919189  -999.250000
 2238.0000000  -999.250000  -999.250000 2.1038401127 2.1038401127 67.734161377 9.8189191818  -999.250000 10.000399590 10.000399590 1532.0490723 1532.0490723  -999.250000
 2238.5000000  -999.250000  -999.250000 2.1016795635 2.1016795635 68.123023987 11.631705284  -999.250000 9.9440383911 9.9440383911 1539.4753418 1539.4753418  -999.250000
 2239.0000000  -999.250000  -999.250000 2.0837883949 2.0837883949 67.847221375 9.2618370056  -999.250000 10.007951736 10.007951736 1547.9206543 1547.9206543  -999.250000
 2239.5000000  -999.250000  -999.250000 2.0843553543 2.0843553543 67.767936707 9.3871679306  -999.250000 9.9959211349 9.9959211349 1543.8471680 1543.8471680  -999.250000
 2240.0000000  -999.250000  -999.250000 2.0863056183 2.0863056183 68.314933777 9.7246427536  -999.250000 10.031527519 10.031527519 1535.1108398 1535.1108398  -999.250000
 2240.5000000  -999.250000  -999.250000 2.1017756462 2.1017756462 68.041046143 10.811562538  -999.250000 10.032907486 10.032907486 1517.7592773 1517.7592773  -999.250000
 2241.0000000  -999.250000  -999.250000 2.1091024876 2.1091024876 68.309272766 11.926845551  -999.250000 10.033532143 10.033532143 1498.2075195 1498.2075195  -999.250000
 2241.5000000  -999.250000  -999.250000 2.0789856911 2.0789856911 67.990577698 10.801707268  -999.250000 10.016837120 10.016837120 1455.6130371 1455.6130371  -999.250000
 2242.0000000  -999.250000  -999.250000 2.0744271278 2.0744271278 68.292335510 10.542081833  -999.250000 10.041708946 10.041708946 1446.6602783 1446.6602783  -999.250000
 2242.5000000  -999.250000  -999.250000 2.0771057606 2.0771057606 67.947509766 8.8496923447  -999.250000 9.9735479355 9.9735479355 1462.0798340 1462.0798340  -999.250000
 2243.0000000  -999.250000  -999.250000 2.0883910656 2.0883910656 67.902160645 9.2164096832  -999.250000 9.9939756393 9.9939756393 1442.0718994 1442.0718994  -999.250000
 2243.5000000  -999.250000  -999.250000 2.0808205605 2.0808205605 66.883644104 9.8473072052  -999.250000 9.9856405258 9.9856405258 1421.1169434 1421.1169434  -999.250000
 2244.0000000  -999.250000  -999.250000 2.1088671684 2.1088671684 66.171684265 9.0519762039  -999.250000 9.9880590439 9.9880590439 1410.9310303 1410.9310303  -999.250000
 2244.5000000  -999.250000  -999.250000 2.1305978298 2.1305978298 66.908477783 10.905432701  -999.250000 10.004732132 10.004732132 1356.9648438 1356.9648438  -999.250000
 2245.0000000  -999.250000  -999.250000 2.0935192108 2.0935192108 68.416465759 11.174711227  -999.250000 10.028884888 10.028884888 1390.3151855 1390.3151855  -999.250000
 2245.5000000  -999.250000  -999.250000 2.0959870815 2.0959870815 68.497360229 11.066876411  -999.250000 10.003025055 10.003025055 1463.0921631 1463.0921631  -999.250000
 2246.0000000  -999.250000  -999.250000 2.0847296715 2.0847296715 68.216247559 10.895606995  -999.250000 10.048180580 10.048180580 1456.5468750 1456.5468750  -999.250000
 2246.5000000  -999.250000  -999.250000 2.0999999046 2.0999999046 68.390113831 11.267666817  -999.250000 9.9650449753 9.9650449753 1447.5350342 1447.5350342  -999.250000
 2247.0000000  -999.250000  -999.250000 2.0921890736 2.0921890736 68.151969910 11.592080116  -999.250000 10.071243286 10.071243286 1447.5350342 1447.5350342  -999.250000
 2247.5000000  -999.250000  -999.250000 2.0824999809 2.0824999809 68.056999207 9.3363752365  -999.250000 10.006249428 10.006249428 1445.9926758 1445.9926758  -999.250000
 2248.0000000  -999.250000  -999.250000 2.0840320587 2.0840320587 68.259162903 9.0878324509  -999.250000 10.074711800 10.074711800 1434.4624023 1434.4624023  -999.250000
 2248.5000000  -999.250000  -999.250000 2.0753750801 2.0753750801 68.072059631 9.9216880798  -999.250000 10.055062294 10.055062294 1434.2659912 1434.2659912  -999.250000
 2249.0000000  -999.250000  -999.250000 2.0787820816 2.0787820816 68.015617371 10.180884361  -999.250000 10.053359032 10.053359032 1431.6524658 1431.6524658  -999.250000
 2249.5000000  -999.250000  -999.250000 2.0765016079 2.0765016079 68.035865784 9.9698734283  -999.250000 10.074504852 10.074504852 1432.8222656 1432.8222656  -999.250000
 2250.0000000  -999.250000  -999.250000 2.0815584660 2.0815584660 68.047508240 10.842313766  -999.250000 10.068441391 10.068441391 1422.6712646 1422.6712646  -999.250000
 2250.5000000  -999.250000  -999.250000 2.0868782997 2.0868782997 67.842674255 10.917797089  -999.250000 10.015154839 10.015154839 1457.0928955 1457.0928955  -999.250000
 2251.0000000  -999.250000  -999.250000 2.0733413696 2.0733413696 67.990242004 12.339130402  -999.250000 10.058587074 10.058587074 1436.0333252 1436.0333252  -999.250000
 2251.5000000  -999.250000  -999.250000 2.0879743099 2.0879743099 67.063758850 12.478205681  -999.250000 10.026032448 10.026032448 1436.7265625 1436.7265625  -999.250000
 2252.0000000  -999.250000  -999.250000 2.0979025364 2.0979025364 66.312110901 9.9158353806  -999.250000 10.035537720 10.035537720 1437.0250244 1437.0250244  -999.250000
 2252.5000000  -999.250000  -999.250000 2.1400480270 2.1400480270 66.341590881 8.7973680496  -999.250000 10.031944275 10.031944275 1414.0834961 1414.0834961  -999.250000
 2253.0000000  -999.250000  -999.250000 2.2529966831 2.2529966831 62.746894836 9.8799839020  -999.250000 9.9689874649 9.9689874649 1317.1485596 1317.1485596  -999.250000
 2253.5000000  -999.250000  -999.250000 2.2068557739 2.2068557739 65.305221558 8.3299760818  -999.250000 10.071043015 10.071043015 1446.3114014 1446.3114014  -999.250000
 2254.0000000  -999.250000  -999.250000 2.1228461266 2.1228461266 68.123870850 8.8512563705  -999.250000 10.009282112 10.009282112 1384.8505859 1384.8505859  -999.250000
 2254.5000000  -999.250000  -999.250000 2.1028497219 2.1028497219 68.200698853 9.1145172119  -999.250000 10.086777687 10.086777687 1442.9916992 1442.9916992  -999.250000
 2255.0000000  -999.250000  -999.250000 2.1090576649 2.1090576649 67.759574890 10.529999733  -999.250000 9.9981174469 9.9981174469 1468.1687012 1468.1687012  -999.250000
 2255.5000000  -999.250000  -999.250000 2.0947885513 2.0947885513 68.056480408 10.006497383  -999.250000 10.062788963 10.062788963 1465.3094482 1465.3094482  -999.250000
