# LAS format log file from PETREL
# Project units are specified as depth units
#==================================================================
~Version information
VERS.   2.0:
WRAP.   NO:
#==================================================================
~Well
STRT .m      0.0000000000 :
STOP .m      3085.5000000 :
STEP .m     0.50000000 :
NULL .        -999.250000 :
COMP.           : COMPANY
WELL.  BIR-3   : WELL
FLD.            : FIELD
LOC.            : LOCATION
SRVC.           : SERVICE COMPANY
DATE.  2022-11-03 20:42:46   : Log Export Date {yyyy-MM-dd HH:mm:ss}
PROV.           : PROVINCE
UWI.   11000075011001   : UNIQUE WELL ID
API.            : API NUMBER
#==================================================================
~Curve
DEPT .m                   : DEPTH
DENS .g/cm3               : DENS
DEN .g/cm3                : DEN
DTC_Avg2 .us/ft           : DTC_Avg2
FLGR .gAPI                : FLGR
GR .gAPI                  : GR
PORNET_NOV14 .m3/m3       : PORNET_NOV14
CALI .in                  : CALI
RES_MIC .ohm.m            : RES_MIC
RES_DEP .ohm.m            : RES_DEP
VCL_2014 ._               : VCL_2014
SHNET ._                  : SHNET
SH ._                     : SH
SH_CAP ._                 : SH_CAP
PERMNET_NOV14 .mD         : PERMNET_NOV14
PERMNET_2015 .mD          : PERMNET_2015
~Parameter
#==================================================================
~Ascii
# ...
 2710.5000000 2.2826826572 2.2826826572 66.263122559 0.0000000000 10.109605789  -999.250000 10.007268906 3.6630470753 3.6602327824  -999.250000  -999.250000  -999.250000  -999.250000  -999.250000  -999.250000
 2711.0000000 2.2782769203 2.2782769203 66.067756653 0.0000000000 8.9275999069  -999.250000 10.009995461 3.6646413803 3.6617627144  -999.250000  -999.250000  -999.250000  -999.250000  -999.250000  -999.250000
 2711.5000000 2.1981105804 2.1981105804 66.867233276 0.0000000000 8.8801822662  -999.250000 10.207490921 3.6662361622 3.6632928848  -999.250000  -999.250000  -999.250000  -999.250000  -999.250000  -999.250000
 2712.0000000 2.2311666012 2.2311666012 66.409759521 0.0000000000 9.8249998093  -999.250000 10.074281693 3.6678304672 3.6648223400  -999.250000  -999.250000  -999.250000  -999.250000  -999.250000  -999.250000
 2712.5000000 2.2339758873 2.2339758873 66.157974243 0.0000000000 10.004764557  -999.250000 10.000570297 3.6694245338 3.6663520336  -999.250000  -999.250000  -999.250000  -999.250000  -999.250000  -999.250000
 2713.0000000 2.1965310574 2.1965310574 66.555450439 0.0000000000 10.128684998  -999.250000 10.108813286 3.6710188389 3.6678817272  -999.250000  -999.250000  -999.250000  -999.250000  -999.250000  -999.250000
 2713.5000000 2.2090001106 2.2090001106 66.604988098 0.0000000000 8.9090080261  -999.250000 10.112670898 3.6726136208 3.6694118977  -999.250000  -999.250000  -999.250000  -999.250000  -999.250000  -999.250000
 2714.0000000 2.2252018452 2.2252018452 66.204421997 0.0000000000 8.9356870651  -999.250000 10.035423279 3.6742079258 3.6709415913  -999.250000  -999.250000  -999.250000  -999.250000  -999.250000  -999.250000
 2714.5000000 2.2202820778 2.2202820778 66.251014709 0.0000000000 9.4049997330  -999.250000 10.079896927 3.6758019924 3.6724710464  -999.250000  -999.250000  -999.250000  -999.250000  -999.250000  -999.250000
 2715.0000000 2.2217597961 2.2217597961 66.138641357 0.0000000000 10.829440117  -999.250000 10.026440620 3.6773960590 3.6740007401  -999.250000  -999.250000  -999.250000  -999.250000  -999.250000  -999.250000
 2715.5000000 2.2140641212 2.2140641212 65.798545837 0.0000000000 11.149229050  -999.250000 10.035470009 3.6789910793 3.6755311489  -999.250000  -999.250000  -999.250000  -999.250000  -999.250000  -999.250000
 2716.0000000 2.2109999657 2.2109999657 66.291076660 0.0000000000 9.1172046661  -999.250000 10.082776070 3.6805853844 3.6770606041  -999.250000  -999.250000  -999.250000  -999.250000  -999.250000  -999.250000
 2716.5000000 2.2208173275 2.2208173275 66.341506958 0.0000000000 11.018740654  -999.250000 10.060999870 3.6821794510 3.6785902977  -999.250000  -999.250000  -999.250000  -999.250000  -999.250000  -999.250000
 2717.0000000 2.2269999981 2.2269999981 66.379776001 0.0000000000 8.5299997330  -999.250000 10.063917160 3.6837737560 3.6801199913  -999.250000  -999.250000  -999.250000  -999.250000  -999.250000  -999.250000
 2717.5000000 2.1973268986 2.1973268986 66.485748291 0.0000000000 9.1635379791  -999.250000 10.129423141 3.6853687763 3.6816504002  -999.250000  -999.250000  -999.250000  -999.250000  -999.250000  -999.250000
 2718.0000000 2.1899790764 2.1899790764 66.439086914 0.0000000000 9.7351255417  -999.250000 10.131875038 3.6869628429 3.6831798553  -999.250000  -999.250000  -999.250000  -999.250000  -999.250000  -999.250000
 2718.5000000 2.2139263153 2.2139263153 66.509689331 0.0000000000 9.8231477737  -999.250000 10.036442757 3.6885571480 3.6847095490  -999.250000  -999.250000  -999.250000  -999.250000  -999.250000  -999.250000
 2719.0000000 2.1924133301 2.1924133301 66.799186707 0.0000000000 9.5462980270  -999.250000 10.068774223 3.6901512146 3.6862390041  -999.250000  -999.250000  -999.250000  -999.250000  -999.250000  -999.250000
 2719.5000000 2.1977980137 2.1977980137 66.437011719 0.0000000000 9.0080041885  -999.250000 10.003466606 3.6917462349 3.6877694130  -999.250000  -999.250000  -999.250000  -999.250000  -999.250000  -999.250000
 2720.0000000 2.2359230518 2.2359230518 66.191787720 0.0000000000 9.8409996033  -999.250000 10.005000114 3.6933403015 3.6892991066  -999.250000  -999.250000  -999.250000  -999.250000  -999.250000  -999.250000
 2720.5000000 2.2190496922 2.2190496922 66.399101257 0.0000000000 9.0862598419  -999.250000 10.140436172 3.6949343681 3.6908288002  -999.250000  -999.250000  -999.250000  -999.250000  -999.250000  -999.250000
 2721.0000000 2.2166697979 2.2166697979 66.497734070 0.0000000000 8.6796407700  -999.250000 10.018281937 3.6965286732 3.6923582554  -999.250000  -999.250000  -999.250000  -999.250000  -999.250000  -999.250000
 2721.5000000 2.2149999142 2.2149999142 66.496414185 0.0000000000 9.4831600189  -999.250000 10.053326607 3.6981236935 3.6938886642  -999.250000  -999.250000  -999.250000  -999.250000  -999.250000  -999.250000
 2722.0000000 2.2393894196 2.2393894196 66.363990784 0.0000000000 10.365797997  -999.250000 10.021536827 3.6997177601 3.6954183578  -999.250000  -999.250000  -999.250000  -999.250000  -999.250000  -999.250000
 2722.5000000 2.2607307434 2.2607307434 66.055633545 0.0000000000 10.058941841  -999.250000 10.009826660 3.7013120651 3.6969480515  -999.250000  -999.250000  -999.250000  -999.250000  -999.250000  -999.250000
 2723.0000000 2.2684648037 2.2684648037 65.761474609 0.0000000000 10.038012505  -999.250000 9.9980926514 3.7029061317 3.6984775066  -999.250000  -999.250000  -999.250000  -999.250000  -999.250000  -999.250000
 2723.5000000 2.2662644386 2.2662644386 65.624084473 0.0000000000 10.360769272  -999.250000 10.005414009 3.7045011520 3.7000079155  -999.250000  -999.250000  -999.250000  -999.250000  -999.250000  -999.250000
 2724.0000000 2.2812242508 2.2812242508 65.623626709 0.0000000000 11.013220787  -999.250000 10.002936363 3.7060954571 3.7015373707  -999.250000  -999.250000  -999.250000  -999.250000  -999.250000  -999.250000
 2724.5000000 2.2841858864 2.2841858864 65.589820862 0.0000000000 9.2815628052  -999.250000 9.9713668823 3.7076895237 3.7030670643  -999.250000  -999.250000  -999.250000  -999.250000  -999.250000  -999.250000
 2725.0000000 2.2882306576 2.2882306576 65.271362305 0.0000000000 10.139538765  -999.250000 9.9352693558 3.7092835903 3.7045967579  -999.250000  -999.250000  -999.250000  -999.250000  -999.250000  -999.250000
 2725.5000000 2.2749872208 2.2749872208 65.374465942 0.0000000000 9.5932693481  -999.250000 9.8743209839 3.7108786106 3.7061269283  -999.250000  -999.250000  -999.250000  -999.250000  -999.250000  -999.250000
 2726.0000000 2.3202066422 2.3202066422 64.405212402 0.0000000000 9.7463512421  -999.250000 9.8610000610 3.7124726772 3.7076568604  -999.250000  -999.250000  -999.250000  -999.250000  -999.250000  -999.250000
 2726.5000000 2.3506026268 2.3506026268 64.698150635 0.0000000000 10.429275513  -999.250000 9.8672599792 3.7140669823 3.7091863155  -999.250000  -999.250000  -999.250000  -999.250000  -999.250000  -999.250000
 2727.0000000 2.3308012486 2.3308012486 64.879653931 0.0000000000 10.270439148  -999.250000 9.8610000610 3.7156610489 3.7107160091  -999.250000  -999.250000  -999.250000  -999.250000  -999.250000  -999.250000
 2727.5000000 2.3981890678 2.3981890678 64.233749390 0.0000000000 11.319200516  -999.250000 9.8334589005 3.7172560692 3.7122464180  -999.250000  -999.250000  -999.250000  -999.250000  -999.250000  -999.250000
 2728.0000000 2.5600769520 2.5600769520 62.068786621 0.0000000000 11.527288437  -999.250000 9.7634744644 3.7188503742 3.7137758732  -999.250000  -999.250000  -999.250000  -999.250000  -999.250000  -999.250000
 2728.5000000 2.9076201916 2.9076201916 55.438560486 0.0000000000 17.538196564  -999.250000 9.6681442261 3.7204444408 3.7153055668  -999.250000  -999.250000  -999.250000  -999.250000  -999.250000  -999.250000
 2729.0000000 2.9527659416 2.9527659416 53.116828918 0.0000000000 25.268823624  -999.250000 9.5652914047 3.7220387459 3.7168350220  -999.250000  -999.250000  -999.250000  -999.250000  -999.250000  -999.250000
 2729.5000000 2.9830000401 2.9830000401 53.410034180 0.0000000000 25.293382645  -999.250000 9.5370492935 3.7236332893 3.7183654308  -999.250000  -999.250000  -999.250000  -999.250000  -999.250000  -999.250000
