# LAS format log file from PETREL
# Project units are specified as depth units
#==================================================================
~Version information
VERS.   2.0:
WRAP.   NO:
#==================================================================
~Well
STRT .m      0.0000000000 :
STOP .m      3085.5000000 :
STEP .m     0.50000000 :
NULL .        -999.250000 :
COMP.           : COMPANY
WELL.  BIR-3   : WELL
FLD.            : FIELD
LOC.            : LOCATION
SRVC.           : SERVICE COMPANY
DATE.  2022-11-03 20:42:46   : Log Export Date {yyyy-MM-dd HH:mm:ss}
PROV.           : PROVINCE
UWI.   11000075011001   : UNIQUE WELL ID
API.            : API NUMBER
#==================================================================
~Curve
DEPT .m                   : DEPTH
DENS .g/cm3               : DENS
DEN .g/cm3                : DEN
DTC_Avg2 .us/ft           : DTC_Avg2
FLGR .gAPI                : FLGR
GR .gAPI                  : GR
PORNET_NOV14 .m3/m3       : PORNET_NOV14
CALI .in                  : CALI
RES_MIC .ohm.m            : RES_MIC
RES_DEP .ohm.m            : RES_DEP
VCL_2014 ._               : VCL_2014
SHNET ._                  : SHNET
SH ._                     : SH
SH_CAP ._                 : SH_CAP
PERMNET_NOV14 .mD         : PERMNET_NOV14
PERMNET_2015 .mD          : PERMNET_2015
~Parameter
#==================================================================
~Ascii
# ...
 2593.5000000 2.1282403469 2.1282403469 67.797424316 0.0000000000 11.927908897  -999.250000 10.066471100 3.2899653912 3.3022611141  -999.250000  -999.250000  -999.250000  -999.250000  -999.250000  -999.250000
 2594.0000000 2.1569073200 2.1569073200 67.865646362 0.0000000000 13.437430382  -999.250000 10.001134872 3.2915594578 3.3037908077  -999.250000  -999.250000  -999.250000  -999.250000  -999.250000  -999.250000
 2594.5000000 2.1814432144 2.1814432144 67.589179993 0.0000000000 13.101193428  -999.250000 10.011995316 3.2931542397 3.3053209782  -999.250000  -999.250000  -999.250000  -999.250000  -999.250000  -999.250000
 2595.0000000 2.1662547588 2.1662547588 67.234504700 0.0000000000 14.698307037  -999.250000 10.156730652 3.2947487831 3.3068506718  -999.250000  -999.250000  -999.250000  -999.250000  -999.250000  -999.250000
 2595.5000000 2.1440000534 2.1440000534 67.778755188 0.0000000000 13.976628304  -999.250000 10.065672874 3.2963428497 3.3083803654  -999.250000  -999.250000  -999.250000  -999.250000  -999.250000  -999.250000
 2596.0000000 2.1363990307 2.1363990307 67.911994934 0.0000000000 12.537508965  -999.250000 10.121850967 3.2979371548 3.3099100590  -999.250000  -999.250000  -999.250000  -999.250000  -999.250000  -999.250000
 2596.5000000 2.1316065788 2.1316065788 67.903739929 0.0000000000 11.589849472  -999.250000 10.154196739 3.2995316982 3.3114399910  -999.250000  -999.250000  -999.250000  -999.250000  -999.250000  -999.250000
 2597.0000000 2.1276826859 2.1276826859 67.905944824 0.0000000000 11.845106125  -999.250000 10.157298088 3.3011262417 3.3129699230  -999.250000  -999.250000  -999.250000  -999.250000  -999.250000  -999.250000
 2597.5000000 2.1289629936 2.1289629936 67.830459595 0.0000000000 12.845238686  -999.250000 10.077612877 3.3027205467 3.3144996166  -999.250000  -999.250000  -999.250000  -999.250000  -999.250000  -999.250000
 2598.0000000 2.1265130043 2.1265130043 68.033256531 0.0000000000 12.154782295  -999.250000 10.226743698 3.3043146133 3.3160290718  -999.250000  -999.250000  -999.250000  -999.250000  -999.250000  -999.250000
 2598.5000000 2.1657729149 2.1657729149 68.073097229 0.0000000000 12.209756851  -999.250000 10.277244568 3.3059091568 3.3175592422  -999.250000  -999.250000  -999.250000  -999.250000  -999.250000  -999.250000
 2599.0000000 2.1457452774 2.1457452774 67.703659058 0.0000000000 13.617334366  -999.250000 10.123681068 3.3075037003 3.3190891743  -999.250000  -999.250000  -999.250000  -999.250000  -999.250000  -999.250000
 2599.5000000 2.1449999809 2.1449999809 67.936447144 0.0000000000 13.722951889  -999.250000 10.252192497 3.3090977669 3.3206186295  -999.250000  -999.250000  -999.250000  -999.250000  -999.250000  -999.250000
 2600.0000000 2.1297340393 2.1297340393 67.872772217 0.0000000000 13.889762878  -999.250000 10.112349510 3.3106920719 3.3221483231  -999.250000  -999.250000  -999.250000  -999.250000  -999.250000  -999.250000
 2600.5000000 2.1289999485 2.1289999485 67.802131653 0.0000000000 13.934639931  -999.250000 10.140375137 3.3122866154 3.3236782551  -999.250000  -999.250000  -999.250000  -999.250000  -999.250000  -999.250000
 2601.0000000 2.1173527241 2.1173527241 67.975036621 0.0000000000 14.858462334  -999.250000 10.110032082 3.3138811588 3.3252081871  -999.250000  -999.250000  -999.250000  -999.250000  -999.250000  -999.250000
 2601.5000000 2.1386795044 2.1386795044 67.951950073 0.0000000000 13.289757729  -999.250000 10.156087875 3.3154754639 3.3267378807  -999.250000  -999.250000  -999.250000  -999.250000  -999.250000  -999.250000
 2602.0000000 2.1319806576 2.1319806576 67.754554749 0.0000000000 11.610605240  -999.250000 10.217432022 3.3170695305 3.3282675743  -999.250000  -999.250000  -999.250000  -999.250000  -999.250000  -999.250000
 2602.5000000 2.1135168076 2.1135168076 67.686927795 0.0000000000 13.459113121  -999.250000 10.126872063 3.3186638355 3.3297972679  -999.250000  -999.250000  -999.250000  -999.250000  -999.250000  -999.250000
 2603.0000000 2.1422643661 2.1422643661 67.945373535 0.0000000000 14.673220634  -999.250000 10.233851433 3.3202586174 3.3313274384  -999.250000  -999.250000  -999.250000  -999.250000  -999.250000  -999.250000
 2603.5000000 2.1500000954 2.1500000954 67.495384216 0.0000000000 14.166666985  -999.250000 10.003665924 3.3218529224 3.3328571320  -999.250000  -999.250000  -999.250000  -999.250000  -999.250000  -999.250000
 2604.0000000 2.1570000648 2.1570000648 67.740104675 0.0000000000 15.250044823  -999.250000 10.025675774 3.3234469891 3.3343868256  -999.250000  -999.250000  -999.250000  -999.250000  -999.250000  -999.250000
 2604.5000000 2.1651055813 2.1651055813 67.644836426 0.0000000000 17.002517700  -999.250000 10.087192535 3.3250412941 3.3359162807  -999.250000  -999.250000  -999.250000  -999.250000  -999.250000  -999.250000
 2605.0000000 2.1374101639 2.1374101639 67.783447266 0.0000000000 14.280891418  -999.250000 10.035531998 3.3266360760 3.3374466896  -999.250000  -999.250000  -999.250000  -999.250000  -999.250000  -999.250000
 2605.5000000 2.1459999084 2.1459999084 68.145629883 0.0000000000 11.488605499  -999.250000 10.081980705 3.3282303810 3.3389763832  -999.250000  -999.250000  -999.250000  -999.250000  -999.250000  -999.250000
 2606.0000000 2.1324167252 2.1324167252 68.021499634 0.0000000000 12.317250252  -999.250000 10.018576622 3.3298244476 3.3405058384  -999.250000  -999.250000  -999.250000  -999.250000  -999.250000  -999.250000
 2606.5000000 2.1139824390 2.1139824390 67.892852783 0.0000000000 13.049272537  -999.250000 9.9636745453 3.3314187527 3.3420355320  -999.250000  -999.250000  -999.250000  -999.250000  -999.250000  -999.250000
 2607.0000000 2.1141009331 2.1141009331 68.036499023 0.0000000000 11.335054398  -999.250000 9.9905986786 3.3330137730 3.3435659409  -999.250000  -999.250000  -999.250000  -999.250000  -999.250000  -999.250000
 2607.5000000 2.1273813248 2.1273813248 68.045188904 0.0000000000 12.130083084  -999.250000 9.9788713455 3.3346078396 3.3450956345  -999.250000  -999.250000  -999.250000  -999.250000  -999.250000  -999.250000
 2608.0000000 2.1257212162 2.1257212162 67.894508362 0.0000000000 12.708297729  -999.250000 10.002255440 3.3362021446 3.3466250896  -999.250000  -999.250000  -999.250000  -999.250000  -999.250000  -999.250000
 2608.5000000 2.1455767155 2.1455767155 67.768127441 0.0000000000 11.384205818  -999.250000 10.067615509 3.3377962112 3.3481547832  -999.250000  -999.250000  -999.250000  -999.250000  -999.250000  -999.250000
 2609.0000000 2.1451153755 2.1451153755 67.742401123 0.0000000000 11.184769630  -999.250000 10.074730873 3.3393912315 3.3496851921  -999.250000  -999.250000  -999.250000  -999.250000  -999.250000  -999.250000
 2609.5000000 2.1456682682 2.1456682682 67.831733704 0.0000000000 11.753644943  -999.250000 10.127075195 3.3409852982 3.3512146473  -999.250000  -999.250000  -999.250000  -999.250000  -999.250000  -999.250000
 2610.0000000 2.1447916031 2.1447916031 67.849060059 0.0000000000 13.338644028  -999.250000 10.017294884 3.3425793648 3.3527443409  -999.250000  -999.250000  -999.250000  -999.250000  -999.250000  -999.250000
 2610.5000000 2.1350576878 2.1350576878 67.755256653 0.0000000000 10.465432167  -999.250000 10.132562637 3.3441736698 3.3542737961  -999.250000  -999.250000  -999.250000  -999.250000  -999.250000  -999.250000
 2611.0000000 2.1481747627 2.1481747627 67.860984802 0.0000000000 9.5526762009  -999.250000 10.071509361 3.3457686901 3.3558042049  -999.250000  -999.250000  -999.250000  -999.250000  -999.250000  -999.250000
 2611.5000000 2.1432306767 2.1432306767 67.597923279 0.0000000000 11.730980873  -999.250000 10.117712021 3.3473627567 3.3573338985  -999.250000  -999.250000  -999.250000  -999.250000  -999.250000  -999.250000
 2612.0000000 2.1632149220 2.1632149220 68.029647827 0.0000000000 11.120627403  -999.250000 10.137778282 3.3489570618 3.3588635921  -999.250000  -999.250000  -999.250000  -999.250000  -999.250000  -999.250000
 2612.5000000 2.2074711323 2.2074711323 67.492996216 0.0000000000 11.074605942  -999.250000 10.193737030 3.3505511284 3.3603932858  -999.250000  -999.250000  -999.250000  -999.250000  -999.250000  -999.250000
