# LAS format log file from PETREL
# Project units are specified as depth units
#==================================================================
~Version information
VERS.   2.0:
WRAP.   NO:
#==================================================================
~Well
STRT .m      0.0000000000 :
STOP .m      3085.5000000 :
STEP .m     0.50000000 :
NULL .        -999.250000 :
COMP.           : COMPANY
WELL.  BIR-3   : WELL
FLD.            : FIELD
LOC.            : LOCATION
SRVC.           : SERVICE COMPANY
DATE.  2022-11-03 20:42:46   : Log Export Date {yyyy-MM-dd HH:mm:ss}
PROV.           : PROVINCE
UWI.   11000075011001   : UNIQUE WELL ID
API.            : API NUMBER
#==================================================================
~Curve
DEPT .m                   : DEPTH
DENS .g/cm3               : DENS
DEN .g/cm3                : DEN
DTC_Avg2 .us/ft           : DTC_Avg2
FLGR .gAPI                : FLGR
GR .gAPI                  : GR
PORNET_NOV14 .m3/m3       : PORNET_NOV14
CALI .in                  : CALI
RES_MIC .ohm.m            : RES_MIC
RES_DEP .ohm.m            : RES_DEP
VCL_2014 ._               : VCL_2014
SHNET ._                  : SHNET
SH ._                     : SH
SH_CAP ._                 : SH_CAP
PERMNET_NOV14 .mD         : PERMNET_NOV14
PERMNET_2015 .mD          : PERMNET_2015
~Parameter
#==================================================================
~Ascii
# ...
 1735.5000000 2.9665651321 2.9665651321 50.879699707 0.0000000000 9.8048067093  -999.250000 9.5237951279 0.5540328622 0.6771355271  -999.250000  -999.250000  -999.250000  -999.250000  -999.250000  -999.250000
 1736.0000000 2.9755880833 2.9755880833 50.769653320 0.0000000000 10.953166962  -999.250000 9.5280761719 0.5556274056 0.6786654592  -999.250000  -999.250000  -999.250000  -999.250000  -999.250000  -999.250000
 1736.5000000 2.9997868538 2.9997868538 50.537448883 0.0000000000 11.715460777  -999.250000 9.5323572159 0.5572217703 0.6801952720  -999.250000  -999.250000  -999.250000  -999.250000  -999.250000  -999.250000
 1737.0000000 2.9805512428 2.9805512428 50.580451965 0.0000000000 11.981897354  -999.250000 9.5372762680 0.5588160753 0.6817250252  -999.250000  -999.250000  -999.250000  -999.250000  -999.250000  -999.250000
 1737.5000000 2.9479181767 2.9479181767 50.833499908 0.0000000000 12.413195610  -999.250000 9.5380001068 0.5604103208 0.6832546592  -999.250000  -999.250000  -999.250000  -999.250000  -999.250000  -999.250000
 1738.0000000 3.0101995468 3.0101995468 50.920097351 0.0000000000 10.491538048  -999.250000 9.5380001068 0.5620048642 0.6847846508  -999.250000  -999.250000  -999.250000  -999.250000  -999.250000  -999.250000
 1738.5000000 2.9977159500 2.9977159500 51.112930298 0.0000000000 12.024395943  -999.250000 9.5404806137 0.5635992289 0.6863144040  -999.250000  -999.250000  -999.250000  -999.250000  -999.250000  -999.250000
 1739.0000000 2.9834470749 2.9834470749 51.259998322 0.0000000000 11.788280487  -999.250000 9.5430002213 0.5651935935 0.6878442168  -999.250000  -999.250000  -999.250000  -999.250000  -999.250000  -999.250000
 1739.5000000 2.9937083721 2.9937083721 51.250877380 0.0000000000 11.078833580  -999.250000 9.5459995270 0.5667877793 0.6893738508  -999.250000  -999.250000  -999.250000  -999.250000  -999.250000  -999.250000
 1740.0000000 3.0000312328 3.0000312328 51.191986084 0.0000000000 10.984375000  -999.250000 9.5473232269 0.5683823228 0.6909037828  -999.250000  -999.250000  -999.250000  -999.250000  -999.250000  -999.250000
 1740.5000000 2.9609816074 2.9609816074 51.148532867 0.0000000000 11.314003944  -999.250000 9.5496034622 0.5699766874 0.6924335957  -999.250000  -999.250000  -999.250000  -999.250000  -999.250000  -999.250000
 1741.0000000 2.9926538467 2.9926538467 50.990745544 0.0000000000 12.369346619  -999.250000 9.5509996414 0.5715710521 0.6939634085  -999.250000  -999.250000  -999.250000  -999.250000  -999.250000  -999.250000
 1741.5000000 2.9566602707 2.9566602707 50.879428864 0.0000000000 11.650719643  -999.250000 9.5531654358 0.5731652379 0.6954929829  -999.250000  -999.250000  -999.250000  -999.250000  -999.250000  -999.250000
 1742.0000000 2.9630167484 2.9630167484 50.813365936 0.0000000000 11.377099037  -999.250000 9.5539999008 0.5747598410 0.6970230341  -999.250000  -999.250000  -999.250000  -999.250000  -999.250000  -999.250000
 1742.5000000 2.9614667892 2.9614667892 50.975154877 0.0000000000 12.352727890  -999.250000 9.5539999008 0.5763540864 0.6985527277  -999.250000  -999.250000  -999.250000  -999.250000  -999.250000  -999.250000
 1743.0000000 2.9660081863 2.9660081863 50.811042786 0.0000000000 13.855169296  -999.250000 9.5520000458 0.5779485106 0.7000826001  -999.250000  -999.250000  -999.250000  -999.250000  -999.250000  -999.250000
 1743.5000000 2.9594423771 2.9594423771 50.989131927 0.0000000000 12.944673538  -999.250000 9.5509996414 0.5795427561 0.7016122341  -999.250000  -999.250000  -999.250000  -999.250000  -999.250000  -999.250000
 1744.0000000 2.9971153736 2.9971153736 50.763732910 0.0000000000 12.459135056  -999.250000 9.5494298935 0.5811372995 0.7031422257  -999.250000  -999.250000  -999.250000  -999.250000  -999.250000  -999.250000
 1744.5000000 3.0075507164 3.0075507164 50.639999390 0.0000000000 14.021149635  -999.250000 9.5480003357 0.5827314854 0.7046718597  -999.250000  -999.250000  -999.250000  -999.250000  -999.250000  -999.250000
 1745.0000000 2.9818382263 2.9818382263 50.677268982 0.0000000000 14.398164749  -999.250000 9.5458679199 0.5843260288 0.7062017322  -999.250000  -999.250000  -999.250000  -999.250000  -999.250000  -999.250000
 1745.5000000 2.9796473980 2.9796473980 50.799137115 0.0000000000 13.811605453  -999.250000 9.5439996719 0.5859202147 0.7077314258  -999.250000  -999.250000  -999.250000  -999.250000  -999.250000  -999.250000
 1746.0000000 3.0070793629 3.0070793629 51.244541168 0.0000000000 12.121153831  -999.250000 9.5423069000 0.5875147581 0.7092613578  -999.250000  -999.250000  -999.250000  -999.250000  -999.250000  -999.250000
 1746.5000000 3.0025508404 3.0025508404 51.312213898 0.0000000000 11.085765839  -999.250000 9.5380268097 0.5891090035 0.7107909918  -999.250000  -999.250000  -999.250000  -999.250000  -999.250000  -999.250000
 1747.0000000 2.9586899281 2.9586899281 51.281120300 0.0000000000 11.784544945  -999.250000 9.5329999924 0.5907034278 0.7123209238  -999.250000  -999.250000  -999.250000  -999.250000  -999.250000  -999.250000
 1747.5000000 2.9253942966 2.9253942966 51.231822968 0.0000000000 13.824111938  -999.250000 9.5319995880 0.5922976732 0.7138505578  -999.250000  -999.250000  -999.250000  -999.250000  -999.250000  -999.250000
 1748.0000000 2.9849631786 2.9849631786 51.127586365 0.0000000000 13.342652321  -999.250000 9.5310001373 0.5938922763 0.7153806090  -999.250000  -999.250000  -999.250000  -999.250000  -999.250000  -999.250000
 1748.5000000 3.0079998970 3.0079998970 50.621604919 0.0000000000 14.604053497  -999.250000 9.5269031525 0.5954864025 0.7169101834  -999.250000  -999.250000  -999.250000  -999.250000  -999.250000  -999.250000
 1749.0000000 2.9897327423 2.9897327423 50.629501343 0.0000000000 13.047986984  -999.250000 9.5212450027 0.5970808268 0.7184399962  -999.250000  -999.250000  -999.250000  -999.250000  -999.250000  -999.250000
 1749.5000000 2.9761202335 2.9761202335 50.749813080 0.0000000000 13.435225487  -999.250000 9.5146827698 0.5986751914 0.7199698091  -999.250000  -999.250000  -999.250000  -999.250000  -999.250000  -999.250000
 1750.0000000 2.9284808636 2.9284808636 50.695869446 0.0000000000 13.897995949  -999.250000 9.5139999390 0.6002697349 0.7214998007  -999.250000  -999.250000  -999.250000  -999.250000  -999.250000  -999.250000
 1750.5000000 2.9725425243 2.9725425243 50.507846832 0.0000000000 14.056778908  -999.250000 9.5191011429 0.6018639207 0.7230293751  -999.250000  -999.250000  -999.250000  -999.250000  -999.250000  -999.250000
 1751.0000000 2.9734869003 2.9734869003 50.540412903 0.0000000000 14.854433060  -999.250000 9.6411275864 0.6034582853 0.7245591879  -999.250000  -999.250000  -999.250000  -999.250000  -999.250000  -999.250000
 1751.5000000 2.9992179871 2.9992179871 50.577445984 0.0000000000 20.073486328  -999.250000 9.5701408386 0.6050526500 0.7260890007  -999.250000  -999.250000  -999.250000  -999.250000  -999.250000  -999.250000
 1752.0000000 2.9591777325 2.9591777325 50.616210938 0.0000000000 28.178216934  -999.250000 9.5419368744 0.6066471934 0.7276189327  -999.250000  -999.250000  -999.250000  -999.250000  -999.250000  -999.250000
 1752.5000000 2.9457499981 2.9457499981 50.343517303 0.0000000000 37.197189331  -999.250000 9.5380001068 0.6082414389 0.7291485667  -999.250000  -999.250000  -999.250000  -999.250000  -999.250000  -999.250000
 1753.0000000 2.8995020390 2.8995020390 50.418994904 0.0000000000 38.682659149  -999.250000 9.5340003967 0.6098357439 0.7306783199  -999.250000  -999.250000  -999.250000  -999.250000  -999.250000  -999.250000
 1753.5000000 2.8340656757 2.8340656757 50.201572418 0.0000000000 45.175350189  -999.250000 9.5340003967 0.6114301682 0.7322081327  -999.250000  -999.250000  -999.250000  -999.250000  -999.250000  -999.250000
 1754.0000000 2.8630368710 2.8630368710 49.134258270 0.0000000000 40.169002533  -999.250000 9.5413732529 0.6130246520 0.7337380648  -999.250000  -999.250000  -999.250000  -999.250000  -999.250000  -999.250000
 1754.5000000 2.9043357372 2.9043357372 48.249786377 0.0000000000 35.166793823  -999.250000 9.5499343872 0.6146188974 0.7352677584  -999.250000  -999.250000  -999.250000  -999.250000  -999.250000  -999.250000
