# LAS format log file from PETREL
# Project units are specified as depth units
#==================================================================
~Version information
VERS.   2.0:
WRAP.   NO:
#==================================================================
~Well
STRT .m      0.0000000000 :
STOP .m      3085.5000000 :
STEP .m     0.50000000 :
NULL .        -999.250000 :
COMP.           : COMPANY
WELL.  BIR-3   : WELL
FLD.            : FIELD
LOC.            : LOCATION
SRVC.           : SERVICE COMPANY
DATE.  2022-11-03 20:42:46   : Log Export Date {yyyy-MM-dd HH:mm:ss}
PROV.           : PROVINCE
UWI.   11000075011001   : UNIQUE WELL ID
API.            : API NUMBER
#==================================================================
~Curve
DEPT .m                   : DEPTH
DENS .g/cm3               : DENS
DEN .g/cm3                : DEN
DTC_Avg2 .us/ft           : DTC_Avg2
FLGR .gAPI                : FLGR
GR .gAPI                  : GR
PORNET_NOV14 .m3/m3       : PORNET_NOV14
CALI .in                  : CALI
RES_MIC .ohm.m            : RES_MIC
RES_DEP .ohm.m            : RES_DEP
VCL_2014 ._               : VCL_2014
SHNET ._                  : SHNET
SH ._                     : SH
SH_CAP ._                 : SH_CAP
PERMNET_NOV14 .mD         : PERMNET_NOV14
PERMNET_2015 .mD          : PERMNET_2015
~Parameter
#==================================================================
~Ascii
# ...
 2808.0000000 2.6310143471 2.6310143471 76.865058899 0.0000000000 107.63597870  -999.250000 9.6540002823 3.9739489555 3.9585428238  -999.250000  -999.250000  -999.250000 0.0000000000  -999.250000  -999.250000
 2808.5000000 2.6599838734 2.6599838734 79.244422913 0.0000000000 107.15559387  -999.250000 9.6540002823 3.9755430222 3.9600725174  -999.250000  -999.250000  -999.250000 0.0000000000  -999.250000  -999.250000
 2809.0000000 2.6748075485 2.6748075485 75.495834351 0.0000000000 99.088233948  -999.250000 9.6540002823 3.9771373272 3.9616019726  -999.250000  -999.250000  -999.250000 0.0000000000  -999.250000  -999.250000
 2809.5000000 2.6850399971 2.6850399971 77.613700867 0.0000000000 100.39712524  -999.250000 9.6529598236 3.9787321091 3.9631323814  -999.250000  -999.250000  -999.250000 0.0000000000  -999.250000  -999.250000
 2810.0000000 2.6451153755 2.6451153755 74.939704895 0.0000000000 90.395576477  -999.250000 9.6499996185 3.9803261757 3.9646620750  -999.250000  -999.250000  -999.250000 0.0000000000  -999.250000  -999.250000
 2810.5000000 2.6403942108 2.6403942108 71.930702209 0.0000000000 95.797523499  -999.250000 9.6499996185 3.9819204807 3.9661915302  -999.250000  -999.250000  -999.250000 0.0000000000  -999.250000  -999.250000
 2811.0000000 2.6540527344 2.6540527344 73.076011658 0.0000000000 103.93975067  -999.250000 9.6499996185 3.9835147858 3.9677212238  -999.250000  -999.250000  -999.250000 0.0000000000  -999.250000  -999.250000
 2811.5000000 2.6243264675 2.6243264675 77.882362366 0.0000000000 103.26799774  -999.250000 9.6499996185 3.9851095676 3.9692513943  -999.250000  -999.250000  -999.250000 0.0000000000  -999.250000  -999.250000
 2812.0000000 2.6355416775 2.6355416775 75.754150391 0.0000000000 108.24078369  -999.250000 9.6534442902 3.9867038727 3.9707810879  -999.250000  -999.250000  -999.250000 0.0000000000  -999.250000  -999.250000
 2812.5000000 2.6592435837 2.6592435837 79.520980835 0.0000000000 97.009590149  -999.250000 9.6542758942 3.9882979393 3.9723107815  -999.250000  -999.250000  -999.250000 0.0000000000  -999.250000  -999.250000
 2813.0000000 2.6819469929 2.6819469929 73.470832825 0.0000000000 87.478309631  -999.250000 9.6520004272 3.9898922443 3.9738402367  -999.250000  -999.250000  -999.250000 0.0000000000  -999.250000  -999.250000
 2813.5000000 2.6231360435 2.6231360435 75.135940552 0.0000000000 106.29778290  -999.250000 9.6515731812 3.9914870262 3.9753704071  -999.250000  -999.250000  -999.250000 0.0000000000  -999.250000  -999.250000
 2814.0000000 2.6347596645 2.6347596645 79.948417664 0.0000000000 114.84033966  -999.250000 9.6540002823 3.9930813313 3.9769003391  -999.250000  -999.250000  -999.250000 0.0000000000  -999.250000  -999.250000
 2814.5000000 2.6368477345 2.6368477345 79.552085876 0.0000000000 98.333923340  -999.250000 9.6540002823 3.9946753979 3.9784300327  -999.250000  -999.250000  -999.250000 0.0000000000  -999.250000  -999.250000
 2815.0000000 2.5932052135 2.5932052135 69.922477722 0.0000000000 47.428333282  -999.250000 9.5595645905 3.9962694645 3.9799597263  -999.250000  -999.250000  -999.250000  -999.250000  -999.250000  -999.250000
 2815.5000000 2.5873360634 2.5873360634 66.500473022 0.0000000000 62.946201324  -999.250000 9.4770479202 3.9978642464 3.9814896584  -999.250000  -999.250000  -999.250000  -999.250000  -999.250000  -999.250000
 2816.0000000 2.6152579784 2.6152579784 76.689819336 0.0000000000 112.12646484  -999.250000 9.5474328995 3.9994587898 3.9830195904  -999.250000  -999.250000  -999.250000 0.0000000000  -999.250000  -999.250000
 2816.5000000 2.6290864944 2.6290864944 78.965301514 0.0000000000 92.990570068  -999.250000 9.5539999008 4.0010533333 3.9845492840  -999.250000  -999.250000  -999.250000 0.0000000000  -999.250000  -999.250000
 2817.0000000 2.6307549477 2.6307549477 74.647720337 0.0000000000 100.21923065  -999.250000 9.5552453995 4.0026469231 3.9860787392  -999.250000  -999.250000  -999.250000 0.0000000000  -999.250000  -999.250000
 2817.5000000 2.6648607254 2.6648607254 78.828193665 0.0000000000 97.375885010  -999.250000 9.5439348221 4.0042414665 3.9876086712  -999.250000  -999.250000  -999.250000 0.0000000000  -999.250000  -999.250000
 2818.0000000 2.6494872570 2.6494872570 73.249542236 0.0000000000 100.69734955  -999.250000 9.5593271255 4.0058364868 3.9891386032  -999.250000  -999.250000  -999.250000 0.0000000000  -999.250000  -999.250000
 2818.5000000 2.6066219807 2.6066219807 74.174797058 0.0000000000 102.02142334  -999.250000 9.5720939636 4.0074300766 3.9906682968  -999.250000  -999.250000  -999.250000 0.0000000000  -999.250000  -999.250000
 2819.0000000 2.6578750610 2.6578750610 75.998146057 0.0000000000 108.30237579  -999.250000 9.5780000687 4.0090246201 3.9921979904  -999.250000  -999.250000  -999.250000 0.0000000000  -999.250000  -999.250000
 2819.5000000 2.6826879978 2.6826879978 78.663154602 0.0000000000 104.46119690  -999.250000 9.5935277939 4.0106186867 3.9937276840  -999.250000  -999.250000  -999.250000 0.0000000000  -999.250000  -999.250000
 2820.0000000 2.6478126049 2.6478126049 77.190116882 0.0000000000 97.432937622  -999.250000 9.6020622253 4.0122137070 3.9952580929  -999.250000  -999.250000  -999.250000 0.0000000000  -999.250000  -999.250000
 2820.5000000 2.6213974953 2.6213974953 76.618820190 0.0000000000 100.48105621  -999.250000 9.5901279449 4.0138077736 3.9967875481  -999.250000  -999.250000  -999.250000 0.0000000000  -999.250000  -999.250000
 2821.0000000 2.6275017262 2.6275017262 73.447914124 0.0000000000 94.176490784  -999.250000 9.5735082626 4.0154023170 3.9983172417  -999.250000  -999.250000  -999.250000 0.0000000000  -999.250000  -999.250000
 2821.5000000 2.6340126991 2.6340126991 74.420478821 0.0000000000 85.318016052  -999.250000 9.5659999847 4.0169963837 3.9998469353  -999.250000  -999.250000  -999.250000  -999.250000  -999.250000  -999.250000
 2822.0000000 2.6333920956 2.6333920956 72.634628296 0.0000000000 88.335571289  -999.250000 9.5658788681 4.0185909271 4.0013771057  -999.250000  -999.250000  -999.250000 0.0000000000  -999.250000  -999.250000
 2822.5000000 2.6060962677 2.6060962677 75.888717651 0.0000000000 90.542358398  -999.250000 9.5599756241 4.0201854706 4.0029067993  -999.250000  -999.250000  -999.250000 0.0000000000  -999.250000  -999.250000
 2823.0000000 2.6231088638 2.6231088638 72.531402588 0.0000000000 91.508132935  -999.250000 9.5561342239 4.0217795372 4.0044364929  -999.250000  -999.250000  -999.250000 0.0000000000  -999.250000  -999.250000
 2823.5000000 2.6230974197 2.6230974197 73.827835083 0.0000000000 101.76576996  -999.250000 9.5577068329 4.0233740807 4.0059661865  -999.250000  -999.250000  -999.250000 0.0000000000  -999.250000  -999.250000
 2824.0000000 2.6742079258 2.6742079258 76.134391785 0.0000000000 110.11814117  -999.250000 9.5579996109 4.0249681473 4.0074963570  -999.250000  -999.250000  -999.250000 0.0000000000  -999.250000  -999.250000
 2824.5000000 2.6536633968 2.6536633968 78.899963379 0.0000000000 109.61426544  -999.250000 9.5579996109 4.0265631676 4.0090260506  -999.250000  -999.250000  -999.250000 0.0000000000  -999.250000  -999.250000
 2825.0000000 2.6349422932 2.6349422932 77.325675964 0.0000000000 99.129928589  -999.250000 9.5579996109 4.0281567574 4.0105557442  -999.250000  -999.250000  -999.250000 0.0000000000  -999.250000  -999.250000
 2825.5000000 2.6473588943 2.6473588943 76.699813843 0.0000000000 98.112098694  -999.250000 9.5579481125 4.0297513008 4.0120849609  -999.250000  -999.250000  -999.250000 0.0000000000  -999.250000  -999.250000
 2826.0000000 2.6276144981 2.6276144981 73.347442627 0.0000000000 99.417938232  -999.250000 9.5393915176 4.0313458443 4.0136151314  -999.250000  -999.250000  -999.250000 0.0000000000  -999.250000  -999.250000
 2826.5000000 2.6222355366 2.6222355366 74.369377136 0.0000000000 97.583320618  -999.250000 9.5231761932 4.0329403877 4.0151453018  -999.250000  -999.250000  -999.250000 0.0000000000  -999.250000  -999.250000
 2827.0000000 2.6318686008 2.6318686008 78.945228577 0.0000000000 96.858268738  -999.250000 9.5220003128 4.0345344543 4.0166745186  -999.250000  -999.250000  -999.250000 0.0000000000  -999.250000  -999.250000
