# LAS format log file from PETREL
# Project units are specified as depth units
#==================================================================
~Version information
VERS.   2.0:
WRAP.   NO:
#==================================================================
~Well
STRT .m      0.0000000000 :
STOP .m      3085.5000000 :
STEP .m     0.50000000 :
NULL .        -999.250000 :
COMP.           : COMPANY
WELL.  BIR-3   : WELL
FLD.            : FIELD
LOC.            : LOCATION
SRVC.           : SERVICE COMPANY
DATE.  2022-11-03 20:42:46   : Log Export Date {yyyy-MM-dd HH:mm:ss}
PROV.           : PROVINCE
UWI.   11000075011001   : UNIQUE WELL ID
API.            : API NUMBER
#==================================================================
~Curve
DEPT .m                   : DEPTH
DENS .g/cm3               : DENS
DEN .g/cm3                : DEN
DTC_Avg2 .us/ft           : DTC_Avg2
FLGR .gAPI                : FLGR
GR .gAPI                  : GR
PORNET_NOV14 .m3/m3       : PORNET_NOV14
CALI .in                  : CALI
RES_MIC .ohm.m            : RES_MIC
RES_DEP .ohm.m            : RES_DEP
VCL_2014 ._               : VCL_2014
SHNET ._                  : SHNET
SH ._                     : SH
SH_CAP ._                 : SH_CAP
PERMNET_NOV14 .mD         : PERMNET_NOV14
PERMNET_2015 .mD          : PERMNET_2015
~Parameter
#==================================================================
~Ascii
# ...
 1423.5000000 2.5275514126 2.5275514126 69.989219666 0.0000000000 16.994295120  -999.250000 11.264730453 37.579231262 1.6473846436  -999.250000  -999.250000  -999.250000  -999.250000  -999.250000  -999.250000
 1424.0000000 2.4991505146 2.4991505146 70.416831970 0.0000000000 14.126137733  -999.250000 11.216026306 34.394844055 1.5546284914  -999.250000  -999.250000  -999.250000  -999.250000  -999.250000  -999.250000
 1424.5000000 2.5336453915 2.5336453915 69.361389160 0.0000000000 18.369323730  -999.250000 11.069581032 30.394144058 1.6179839373  -999.250000  -999.250000  -999.250000  -999.250000  -999.250000  -999.250000
 1425.0000000 2.5425148010 2.5425148010 69.129760742 0.0000000000 18.042156219  -999.250000 10.950546265 254.73599243 1.7285156250  -999.250000  -999.250000  -999.250000  -999.250000  -999.250000  -999.250000
 1425.5000000 2.5122532845 2.5122532845 70.086952209 0.0000000000 16.666627884  -999.250000 10.905228615 80.807075500 1.5281810760  -999.250000  -999.250000  -999.250000  -999.250000  -999.250000  -999.250000
 1426.0000000 2.5430583954 2.5430583954 68.399345398 0.0000000000 15.295658112  -999.250000 10.866538048 56.262447357 1.6922650337  -999.250000  -999.250000  -999.250000  -999.250000  -999.250000  -999.250000
 1426.5000000 2.5470552444 2.5470552444 68.819648743 0.0000000000 15.051589012  -999.250000 10.836638451 39.737777710 1.6591905355  -999.250000  -999.250000  -999.250000  -999.250000  -999.250000  -999.250000
 1427.0000000 2.5013794899 2.5013794899 68.827491760 0.0000000000 16.205430984  -999.250000 10.801310539 20.956911087 1.3016557693  -999.250000  -999.250000  -999.250000  -999.250000  -999.250000  -999.250000
 1427.5000000 2.5155479908 2.5155479908 68.269775391 0.0000000000 17.035961151  -999.250000 10.770018578 51.365615845 1.6381634474  -999.250000  -999.250000  -999.250000  -999.250000  -999.250000  -999.250000
 1428.0000000 2.5364501476 2.5364501476 67.296600342 0.0000000000 16.808008194  -999.250000 10.726371765 948.60137939 1.7061313391  -999.250000  -999.250000  -999.250000  -999.250000  -999.250000  -999.250000
 1428.5000000 2.5082809925 2.5082809925 67.252128601 0.0000000000 14.195754051  -999.250000 10.718000412 131.43685913 1.4498031139  -999.250000  -999.250000  -999.250000  -999.250000  -999.250000  -999.250000
 1429.0000000 2.5218429565 2.5218429565 67.221496582 0.0000000000 15.289406776  -999.250000 10.718000412 50.217918396 1.4088358879  -999.250000  -999.250000  -999.250000  -999.250000  -999.250000  -999.250000
 1429.5000000 2.5164134502 2.5164134502 67.983718872 0.0000000000 16.102659225  -999.250000 10.721842766 30.445632935 1.6525752544  -999.250000  -999.250000  -999.250000  -999.250000  -999.250000  -999.250000
 1430.0000000 2.5170097351 2.5170097351 68.336402893 0.0000000000 17.732549667  -999.250000 10.725999832 18.793441772 1.3835095167  -999.250000  -999.250000  -999.250000  -999.250000  -999.250000  -999.250000
 1430.5000000 2.5234827995 2.5234827995 66.894599915 0.0000000000 16.093582153  -999.250000 10.734448433 40.557502747 1.7283803225  -999.250000  -999.250000  -999.250000  -999.250000  -999.250000  -999.250000
 1431.0000000 2.5496535301 2.5496535301 67.368782043 0.0000000000 16.280200958  -999.250000 10.747818947 175.18165588 1.6951009035  -999.250000  -999.250000  -999.250000  -999.250000  -999.250000  -999.250000
 1431.5000000 2.5227310658 2.5227310658 68.155364990 0.0000000000 16.167516708  -999.250000 10.750000000 182.99432373 1.3711577654  -999.250000  -999.250000  -999.250000  -999.250000  -999.250000  -999.250000
 1432.0000000 2.4867229462 2.4867229462 69.116691589 0.0000000000 16.511930466  -999.250000 10.750000000 30.625043869 1.2375545502  -999.250000  -999.250000  -999.250000  -999.250000  -999.250000  -999.250000
 1432.5000000 2.4746365547 2.4746365547 69.179832458 0.0000000000 16.469055176  -999.250000 10.750000000 7.0685162544 1.0293298960  -999.250000  -999.250000  -999.250000  -999.250000  -999.250000  -999.250000
 1433.0000000 2.4613225460 2.4613225460 69.475540161 0.0000000000 15.355078697  -999.250000 10.746338844 7.0371832848 0.8788550496  -999.250000  -999.250000  -999.250000  -999.250000  -999.250000  -999.250000
 1433.5000000 2.4929823875 2.4929823875 70.270919800 0.0000000000 13.975507736  -999.250000 10.745832443 5.7895307541 0.8058238626  -999.250000  -999.250000  -999.250000  -999.250000  -999.250000  -999.250000
 1434.0000000 2.4461410046 2.4461410046 70.168693542 0.0000000000 16.017782211  -999.250000 10.739653587 5.2484617233 0.6869359016  -999.250000  -999.250000  -999.250000  -999.250000  -999.250000  -999.250000
 1434.5000000 2.4861416817 2.4861416817 69.721382141 0.0000000000 14.383002281  -999.250000 10.758399010 57.176185608 1.1953818798  -999.250000  -999.250000  -999.250000  -999.250000  -999.250000  -999.250000
 1435.0000000 2.5129687786 2.5129687786 69.161277771 0.0000000000 16.657136917  -999.250000 10.850646019 43.438270569 1.3698749542  -999.250000  -999.250000  -999.250000  -999.250000  -999.250000  -999.250000
 1435.5000000 2.5041258335 2.5041258335 67.476539612 0.0000000000 16.381231308  -999.250000 10.748376846 26.992090225 1.2805941105  -999.250000  -999.250000  -999.250000  -999.250000  -999.250000  -999.250000
 1436.0000000 2.5032739639 2.5032739639 67.563713074 0.0000000000 15.168466568  -999.250000 10.737999916 17.889802933 1.2660241127  -999.250000  -999.250000  -999.250000  -999.250000  -999.250000  -999.250000
 1436.5000000 2.4893794060 2.4893794060 68.361312866 0.0000000000 15.089658737  -999.250000 10.742263794 26.449983597 1.3534419537  -999.250000  -999.250000  -999.250000  -999.250000  -999.250000  -999.250000
 1437.0000000 2.5304014683 2.5304014683 68.528320313 0.0000000000 16.700233459  -999.250000 10.761330605 74.109283447 1.4026001692  -999.250000  -999.250000  -999.250000  -999.250000  -999.250000  -999.250000
 1437.5000000 2.5220968723 2.5220968723 68.570640564 0.0000000000 17.478891373  -999.250000 10.719313622 1396.2943115 1.5407477617  -999.250000  -999.250000  -999.250000  -999.250000  -999.250000  -999.250000
 1438.0000000 2.5103044510 2.5103044510 67.105247498 0.0000000000 14.596131325  -999.250000 10.567920685 93.408882141 1.2255256176  -999.250000  -999.250000  -999.250000  -999.250000  -999.250000  -999.250000
 1438.5000000 2.4832789898 2.4832789898 68.693168640 0.0000000000 14.230566025  -999.250000 10.486255646 23.918193817 1.2120465040  -999.250000  -999.250000  -999.250000  -999.250000  -999.250000  -999.250000
 1439.0000000 2.5006299019 2.5006299019 68.131095886 0.0000000000 15.292832375  -999.250000 10.480999947 16.606693268 1.1310000420  -999.250000  -999.250000  -999.250000  -999.250000  -999.250000  -999.250000
 1439.5000000 2.5051522255 2.5051522255 67.739501953 0.0000000000 16.087236404  -999.250000 10.479385376 26.077604294 1.2884228230  -999.250000  -999.250000  -999.250000  -999.250000  -999.250000  -999.250000
 1440.0000000 2.5065433979 2.5065433979 67.551101685 0.0000000000 16.069313049  -999.250000 10.474543571 41.604225159 1.4440946579  -999.250000  -999.250000  -999.250000  -999.250000  -999.250000  -999.250000
 1440.5000000 2.5008993149 2.5008993149 67.612304688 0.0000000000 15.108018875  -999.250000 10.472999573 106.16323853 1.2529920340  -999.250000  -999.250000  -999.250000  -999.250000  -999.250000  -999.250000
 1441.0000000 2.4941794872 2.4941794872 66.888206482 0.0000000000 12.820432663  -999.250000 10.474238396 61.017581940 1.1151417494  -999.250000  -999.250000  -999.250000  -999.250000  -999.250000  -999.250000
 1441.5000000 2.5239679813 2.5239679813 67.228096008 0.0000000000 13.248658180  -999.250000 10.387546539 36.777206421 1.2229543924  -999.250000  -999.250000  -999.250000  -999.250000  -999.250000  -999.250000
 1442.0000000 2.4993076324 2.4993076324 67.302085876 0.0000000000 14.375249863  -999.250000 10.375827789 20.958000183 1.3863269091  -999.250000  -999.250000  -999.250000  -999.250000  -999.250000  -999.250000
 1442.5000000 2.5111272335 2.5111272335 67.362258911 0.0000000000 15.986883163  -999.250000 10.385000229 18.592449188 1.4002130032  -999.250000  -999.250000  -999.250000  -999.250000  -999.250000  -999.250000
