# LAS format log file from PETREL
# Project units are specified as depth units
#==================================================================
~Version information
VERS.   2.0:
WRAP.   NO:
#==================================================================
~Well
STRT .m      0.0000000000 :
STOP .m      3085.5000000 :
STEP .m     0.50000000 :
NULL .        -999.250000 :
COMP.           : COMPANY
WELL.  BIR-3   : WELL
FLD.            : FIELD
LOC.            : LOCATION
SRVC.           : SERVICE COMPANY
DATE.  2022-11-03 20:42:46   : Log Export Date {yyyy-MM-dd HH:mm:ss}
PROV.           : PROVINCE
UWI.   11000075011001   : UNIQUE WELL ID
API.            : API NUMBER
#==================================================================
~Curve
DEPT .m                   : DEPTH
DENS .g/cm3               : DENS
DEN .g/cm3                : DEN
DTC_Avg2 .us/ft           : DTC_Avg2
FLGR .gAPI                : FLGR
GR .gAPI                  : GR
PORNET_NOV14 .m3/m3       : PORNET_NOV14
CALI .in                  : CALI
RES_MIC .ohm.m            : RES_MIC
RES_DEP .ohm.m            : RES_DEP
VCL_2014 ._               : VCL_2014
SHNET ._                  : SHNET
SH ._                     : SH
SH_CAP ._                 : SH_CAP
PERMNET_NOV14 .mD         : PERMNET_NOV14
PERMNET_2015 .mD          : PERMNET_2015
~Parameter
#==================================================================
~Ascii
# ...
 1521.0000000 2.5382595062 2.5382595062 68.232574463 0.0000000000 18.957090378  -999.250000 10.296999931 174.65246582 2.2833654881  -999.250000  -999.250000  -999.250000  -999.250000  -999.250000  -999.250000
 1521.5000000 2.5428085327 2.5428085327 68.455520630 0.0000000000 21.633529663  -999.250000 10.296999931 263.18142700 2.1607005596  -999.250000  -999.250000  -999.250000  -999.250000  -999.250000  -999.250000
 1522.0000000 2.5630128384 2.5630128384 68.329643250 0.0000000000 20.089891434  -999.250000 10.293000221 1761.8212891 2.1221058369  -999.250000  -999.250000  -999.250000  -999.250000  -999.250000  -999.250000
 1522.5000000 2.5523188114 2.5523188114 68.914138794 0.0000000000 16.811960220  -999.250000 10.288842201 52.686954498 1.6218959093  -999.250000  -999.250000  -999.250000  -999.250000  -999.250000  -999.250000
 1523.0000000 2.5361235142 2.5361235142 67.169502258 0.0000000000 15.519383430  -999.250000 10.266616821 28.456481934 1.3730465174  -999.250000  -999.250000  -999.250000  -999.250000  -999.250000  -999.250000
 1523.5000000 2.5284051895 2.5284051895 65.818717957 0.0000000000 15.443678856  -999.250000 10.221281052 24.713680267 1.1524891853  -999.250000  -999.250000  -999.250000  -999.250000  -999.250000  -999.250000
 1524.0000000 2.4969999790 2.4969999790 65.802429199 0.0000000000 14.234999657  -999.250000 10.225000381 77.411003113 1.1840000153  -999.250000  -999.250000  -999.250000  -999.250000  -999.250000  -999.250000
 1524.5000000 2.5093393326 2.5093393326 66.310272217 0.0000000000 12.957365036  -999.250000 10.227718353 109.72966766 1.6236284971  -999.250000  -999.250000  -999.250000  -999.250000  -999.250000  -999.250000
 1525.0000000 2.5439999104 2.5439999104 65.417778015 0.0000000000 13.685291290  -999.250000 10.221710205 170.05125427 1.9519190788  -999.250000  -999.250000  -999.250000  -999.250000  -999.250000  -999.250000
 1525.5000000 2.5478422642 2.5478422642 65.709800720 0.0000000000 14.596035004  -999.250000 10.209472656 166.51351929 1.9147285223  -999.250000  -999.250000  -999.250000  -999.250000  -999.250000  -999.250000
 1526.0000000 2.5370128155 2.5370128155 68.545936584 0.0000000000 16.744646072  -999.250000 10.205888748 40.543190002 1.4685881138  -999.250000  -999.250000  -999.250000  -999.250000  -999.250000  -999.250000
 1526.5000000 2.5305306911 2.5305306911 65.918533325 0.0000000000 15.014276505  -999.250000 10.149765968 45.640880585 1.1615924835  -999.250000  -999.250000  -999.250000  -999.250000  -999.250000  -999.250000
 1527.0000000 2.5095744133 2.5095744133 66.150321960 0.0000000000 14.497896194  -999.250000 10.146945000 53.458408356 1.1746970415  -999.250000  -999.250000  -999.250000  -999.250000  -999.250000  -999.250000
 1527.5000000 2.5105867386 2.5105867386 68.011947632 0.0000000000 15.572765350  -999.250000 10.145000458 269.32135010 1.7809047699  -999.250000  -999.250000  -999.250000  -999.250000  -999.250000  -999.250000
 1528.0000000 2.5565321445 2.5565321445 65.746490479 0.0000000000 15.115776062  -999.250000 10.146739960 97.947807312 1.5837532282  -999.250000  -999.250000  -999.250000  -999.250000  -999.250000  -999.250000
 1528.5000000 2.5390303135 2.5390303135 66.285957336 0.0000000000 12.707921982  -999.250000 10.145000458 240.70338440 1.7744251490  -999.250000  -999.250000  -999.250000  -999.250000  -999.250000  -999.250000
 1529.0000000 2.5539357662 2.5539357662 67.301467896 0.0000000000 16.506322861  -999.250000 10.145000458 143.89309692 1.9190433025  -999.250000  -999.250000  -999.250000  -999.250000  -999.250000  -999.250000
 1529.5000000 2.5469999313 2.5469999313 67.123062134 0.0000000000 16.465324402  -999.250000 10.145000458 470.14501953 1.8629063368  -999.250000  -999.250000  -999.250000  -999.250000  -999.250000  -999.250000
 1530.0000000 2.5724086761 2.5724086761 66.860939026 0.0000000000 15.941139221  -999.250000 10.145000458 92.400306702 1.5081201792  -999.250000  -999.250000  -999.250000  -999.250000  -999.250000  -999.250000
 1530.5000000 2.5428872108 2.5428872108 66.188819885 0.0000000000 16.813186646  -999.250000 10.149000168 260.05191040 1.5616588593  -999.250000  -999.250000  -999.250000  -999.250000  -999.250000  -999.250000
 1531.0000000 2.5194087029 2.5194087029 66.019439697 0.0000000000 16.411676407  -999.250000 10.152932167 88.114784241 1.5423125029  -999.250000  -999.250000  -999.250000  -999.250000  -999.250000  -999.250000
 1531.5000000 2.5158493519 2.5158493519 66.018806458 0.0000000000 15.662136078  -999.250000 10.156999588 156.04919434 1.6448725462  -999.250000  -999.250000  -999.250000  -999.250000  -999.250000  -999.250000
 1532.0000000 2.5549616814 2.5549616814 66.828933716 0.0000000000 19.536251068  -999.250000 10.156999588 254.79879761 2.1007692814  -999.250000  -999.250000  -999.250000  -999.250000  -999.250000  -999.250000
 1532.5000000 2.5615484715 2.5615484715 68.124191284 0.0000000000 17.963129044  -999.250000 10.156999588 124.74169159 1.8405436277  -999.250000  -999.250000  -999.250000  -999.250000  -999.250000  -999.250000
 1533.0000000 2.5523369312 2.5523369312 66.039260864 0.0000000000 16.850688934  -999.250000 10.156999588 96.267807007 1.8597670794  -999.250000  -999.250000  -999.250000  -999.250000  -999.250000  -999.250000
 1533.5000000 2.5220577717 2.5220577717 65.996017456 0.0000000000 17.921474457  -999.250000 10.152999878 284.78686523 2.2365705967  -999.250000  -999.250000  -999.250000  -999.250000  -999.250000  -999.250000
 1534.0000000 2.5572547913 2.5572547913 67.379013062 0.0000000000 18.535320282  -999.250000 10.152999878 159.29042053 1.7904520035  -999.250000  -999.250000  -999.250000  -999.250000  -999.250000  -999.250000
 1534.5000000 2.5403571129 2.5403571129 66.763931274 0.0000000000 18.774740219  -999.250000 10.156897545 99.453353882 1.7662642002  -999.250000  -999.250000  -999.250000  -999.250000  -999.250000  -999.250000
 1535.0000000 2.5477502346 2.5477502346 69.253776550 0.0000000000 19.770013809  -999.250000 10.156999588 215.39381409 2.0062859058  -999.250000  -999.250000  -999.250000  -999.250000  -999.250000  -999.250000
 1535.5000000 2.5605096817 2.5605096817 69.121818542 0.0000000000 20.603778839  -999.250000 10.157459259 195.30969238 2.0139183998  -999.250000  -999.250000  -999.250000  -999.250000  -999.250000  -999.250000
 1536.0000000 2.5557789803 2.5557789803 69.317909241 0.0000000000 20.283374786  -999.250000 10.161000252 167.78446960 2.0164711475  -999.250000  -999.250000  -999.250000  -999.250000  -999.250000  -999.250000
 1536.5000000 2.5597708225 2.5597708225 69.274253845 0.0000000000 19.430667877  -999.250000 10.161000252 142.83816528 2.1250414848  -999.250000  -999.250000  -999.250000  -999.250000  -999.250000  -999.250000
 1537.0000000 2.5613386631 2.5613386631 69.537528992 0.0000000000 20.492805481  -999.250000 10.158302307 132.48146057 1.9626220465  -999.250000  -999.250000  -999.250000  -999.250000  -999.250000  -999.250000
 1537.5000000 2.5495922565 2.5495922565 69.240470886 0.0000000000 20.009548187  -999.250000 10.161000252 254.07522583 2.0281066895  -999.250000  -999.250000  -999.250000  -999.250000  -999.250000  -999.250000
 1538.0000000 2.5453188419 2.5453188419 70.175071716 0.0000000000 22.242252350  -999.250000 10.161000252 127.12500000 1.8819503784  -999.250000  -999.250000  -999.250000  -999.250000  -999.250000  -999.250000
 1538.5000000 2.5539903641 2.5539903641 69.250228882 0.0000000000 20.611537933  -999.250000 10.161000252 109.94551849 1.9179134369  -999.250000  -999.250000  -999.250000  -999.250000  -999.250000  -999.250000
 1539.0000000 2.5534250736 2.5534250736 70.762763977 0.0000000000 19.636825562  -999.250000 10.161850929 257.31848145 2.0454251766  -999.250000  -999.250000  -999.250000  -999.250000  -999.250000  -999.250000
 1539.5000000 2.5968253613 2.5968253613 70.341453552 0.0000000000 19.879690170  -999.250000 10.164999962 178.65473938 1.9749391079  -999.250000  -999.250000  -999.250000  -999.250000  -999.250000  -999.250000
 1540.0000000 2.5502307415 2.5502307415 72.924781799 0.0000000000 22.186628342  -999.250000 10.163973808 182.68600464 1.8767820597  -999.250000  -999.250000  -999.250000  -999.250000  -999.250000  -999.250000
