# LAS format log file from PETREL
# Project units are specified as depth units
#==================================================================
~Version information
VERS.   2.0:
WRAP.   NO:
#==================================================================
~Well
STRT .m      0.0000000000 :
STOP .m      3085.5000000 :
STEP .m     0.50000000 :
NULL .        -999.250000 :
COMP.           : COMPANY
WELL.  BIR-3   : WELL
FLD.            : FIELD
LOC.            : LOCATION
SRVC.           : SERVICE COMPANY
DATE.  2022-11-03 20:42:46   : Log Export Date {yyyy-MM-dd HH:mm:ss}
PROV.           : PROVINCE
UWI.   11000075011001   : UNIQUE WELL ID
API.            : API NUMBER
#==================================================================
~Curve
DEPT .m                   : DEPTH
DENS .g/cm3               : DENS
DEN .g/cm3                : DEN
DTC_Avg2 .us/ft           : DTC_Avg2
FLGR .gAPI                : FLGR
GR .gAPI                  : GR
PORNET_NOV14 .m3/m3       : PORNET_NOV14
CALI .in                  : CALI
RES_MIC .ohm.m            : RES_MIC
RES_DEP .ohm.m            : RES_DEP
VCL_2014 ._               : VCL_2014
SHNET ._                  : SHNET
SH ._                     : SH
SH_CAP ._                 : SH_CAP
PERMNET_NOV14 .mD         : PERMNET_NOV14
PERMNET_2015 .mD          : PERMNET_2015
~Parameter
#==================================================================
~Ascii
# ...
 2067.0000000 2.0989999771 2.0989999771 67.856864929 0.0000000000 11.248861313  -999.250000 9.4940004349 1.6110976934 1.6913887262  -999.250000  -999.250000  -999.250000  -999.250000  -999.250000  -999.250000
 2067.5000000 2.1412725449 2.1412725449 67.875976563 0.0000000000 11.646233559  -999.250000 9.4907274246 1.6126919985 1.6929183006  -999.250000  -999.250000  -999.250000  -999.250000  -999.250000  -999.250000
 2068.0000000 2.1121246815 2.1121246815 67.941459656 0.0000000000 11.701812744  -999.250000 9.4873390198 1.6142864227 1.6944482327  -999.250000  -999.250000  -999.250000  -999.250000  -999.250000  -999.250000
 2068.5000000 2.1116697788 2.1116697788 68.110137939 0.0000000000 12.831506729  -999.250000 9.4791650772 1.6158810854 1.6959781647  -999.250000  -999.250000  -999.250000  -999.250000  -999.250000  -999.250000
 2069.0000000 2.0919613838 2.0919613838 68.708274841 0.0000000000 12.140922546  -999.250000 9.4739999771 1.6174751520 1.6975078583  -999.250000  -999.250000  -999.250000  -999.250000  -999.250000  -999.250000
 2069.5000000 2.0603959560 2.0603959560 68.127174377 0.0000000000 11.284354210  -999.250000 9.4712085724 1.6190694571 1.6990374327  -999.250000  -999.250000  -999.250000  -999.250000  -999.250000  -999.250000
 2070.0000000 2.0694143772 2.0694143772 68.426116943 0.0000000000 11.377964973  -999.250000 9.4720306396 1.6206638813 1.7005673647  -999.250000  -999.250000  -999.250000  -999.250000  -999.250000  -999.250000
 2070.5000000 2.0829582214 2.0829582214 68.593955994 0.0000000000 10.999250412  -999.250000 9.4739999771 1.6222585440 1.7020974159  -999.250000  -999.250000  -999.250000  -999.250000  -999.250000  -999.250000
 2071.0000000 2.1101346016 2.1101346016 68.275733948 0.0000000000 10.733597755  -999.250000 9.4772386551 1.6238527298 1.7036269903  -999.250000  -999.250000  -999.250000  -999.250000  -999.250000  -999.250000
 2071.5000000 2.1026346684 2.1026346684 68.334465027 0.0000000000 10.672845840  -999.250000 9.4815578461 1.6254469156 1.7051566839  -999.250000  -999.250000  -999.250000  -999.250000  -999.250000  -999.250000
 2072.0000000 2.0926001072 2.0926001072 68.530387878 0.0000000000 11.960399628  -999.250000 9.5000000000 1.6270413399 1.7066864967  -999.250000  -999.250000  -999.250000  -999.250000  -999.250000  -999.250000
 2072.5000000 2.0982451439 2.0982451439 68.183074951 0.0000000000 11.334533691  -999.250000 9.5009183884 1.6286360025 1.7082166672  -999.250000  -999.250000  -999.250000  -999.250000  -999.250000  -999.250000
 2073.0000000 2.1045513153 2.1045513153 68.040710449 0.0000000000 13.223061562  -999.250000 9.5115346909 1.6302301884 1.7097462416  -999.250000  -999.250000  -999.250000  -999.250000  -999.250000  -999.250000
 2073.5000000 2.1147837639 2.1147837639 68.131568909 0.0000000000 20.654026031  -999.250000 9.5332851410 1.6318243742 1.7112758160  -999.250000  -999.250000  -999.250000  -999.250000  -999.250000  -999.250000
 2074.0000000 2.1160767078 2.1160767078 68.120002747 0.0000000000 21.334436417  -999.250000 9.5378465652 1.6334186792 1.7128055096  -999.250000  -999.250000  -999.250000  -999.250000  -999.250000  -999.250000
 2074.5000000 2.1352562904 2.1352562904 68.120475769 0.0000000000 18.357049942  -999.250000 9.5419998169 1.6350134611 1.7143357992  -999.250000  -999.250000  -999.250000  -999.250000  -999.250000  -999.250000
 2075.0000000 2.1355719566 2.1355719566 68.490287781 0.0000000000 16.131649017  -999.250000 9.5479421616 1.6366077662 1.7158654928  -999.250000  -999.250000  -999.250000  -999.250000  -999.250000  -999.250000
 2075.5000000 2.1177020073 2.1177020073 68.476348877 0.0000000000 10.394346237  -999.250000 9.5874900818 1.6382018328 1.7173950672  -999.250000  -999.250000  -999.250000  -999.250000  -999.250000  -999.250000
 2076.0000000 2.1370930672 2.1370930672 67.966415405 0.0000000000 10.227525711  -999.250000 9.6211862564 1.6397960186 1.7189246416  -999.250000  -999.250000  -999.250000  -999.250000  -999.250000  -999.250000
 2076.5000000 2.1003429890 2.1003429890 68.596069336 0.0000000000 10.649999619  -999.250000 9.6300001144 1.6413910389 1.7204550505  -999.250000  -999.250000  -999.250000  -999.250000  -999.250000  -999.250000
 2077.0000000 2.0992178917 2.0992178917 68.197158813 0.0000000000 11.213096619  -999.250000 9.6287822723 1.6429852247 1.7219846249  -999.250000  -999.250000  -999.250000  -999.250000  -999.250000  -999.250000
 2077.5000000 2.1144423485 2.1144423485 68.491622925 0.0000000000 12.730010033  -999.250000 9.6222209930 1.6445792913 1.7235141993  -999.250000  -999.250000  -999.250000  -999.250000  -999.250000  -999.250000
 2078.0000000 2.0850193501 2.0850193501 68.602722168 0.0000000000 11.397269249  -999.250000 9.6161508560 1.6461735964 1.7250437737  -999.250000  -999.250000  -999.250000  -999.250000  -999.250000  -999.250000
 2078.5000000 2.1103847027 2.1103847027 68.706489563 0.0000000000 13.925230980  -999.250000 9.6022882462 1.6477684975 1.7265741825  -999.250000  -999.250000  -999.250000  -999.250000  -999.250000  -999.250000
 2079.0000000 2.0947325230 2.0947325230 68.607093811 0.0000000000 16.517980576  -999.250000 9.5900001526 1.6493626833 1.7281037569  -999.250000  -999.250000  -999.250000  -999.250000  -999.250000  -999.250000
 2079.5000000 2.1307821274 2.1307821274 68.269462585 0.0000000000 18.165256500  -999.250000 9.5758724213 1.6509568691 1.7296334505  -999.250000  -999.250000  -999.250000  -999.250000  -999.250000  -999.250000
 2080.0000000 2.1128830910 2.1128830910 67.764366150 0.0000000000 12.277652740  -999.250000 9.5495271683 1.6525515318 1.7311635017  -999.250000  -999.250000  -999.250000  -999.250000  -999.250000  -999.250000
 2080.5000000 2.1046986580 2.1046986580 68.026390076 0.0000000000 11.419373512  -999.250000 9.5306987762 1.6541459560 1.7326934338  -999.250000  -999.250000  -999.250000  -999.250000  -999.250000  -999.250000
 2081.0000000 2.0968556404 2.0968556404 68.384033203 0.0000000000 13.135912895  -999.250000 9.5175771713 1.6557401419 1.7342230082  -999.250000  -999.250000  -999.250000  -999.250000  -999.250000  -999.250000
 2081.5000000 2.1008172035 2.1008172035 68.141151428 0.0000000000 14.734384537  -999.250000 9.5139999390 1.6573343277 1.7357525826  -999.250000  -999.250000  -999.250000  -999.250000  -999.250000  -999.250000
 2082.0000000 2.1043183804 2.1043183804 68.153594971 0.0000000000 10.955426216  -999.250000 9.5139999390 1.6589289904 1.7372826338  -999.250000  -999.250000  -999.250000  -999.250000  -999.250000  -999.250000
 2082.5000000 2.0890831947 2.0890831947 68.215118408 0.0000000000 10.868442535  -999.250000 9.5139999390 1.6605235338 1.7388125658  -999.250000  -999.250000  -999.250000  -999.250000  -999.250000  -999.250000
 2083.0000000 2.0920207500 2.0920207500 68.222717285 0.0000000000 10.710000038  -999.250000 9.5139999390 1.6621176004 1.7403421402  -999.250000  -999.250000  -999.250000  -999.250000  -999.250000  -999.250000
 2083.5000000 2.0912597179 2.0912597179 68.006103516 0.0000000000 12.305577278  -999.250000 9.5139999390 1.6637117863 1.7418718338  -999.250000  -999.250000  -999.250000  -999.250000  -999.250000  -999.250000
 2084.0000000 2.1050000191 2.1050000191 68.498481750 0.0000000000 14.609425545  -999.250000 9.5104589462 1.6653063297 1.7434017658  -999.250000  -999.250000  -999.250000  -999.250000  -999.250000  -999.250000
 2084.5000000 2.1161105633 2.1161105633 68.309608459 0.0000000000 19.611227036  -999.250000 9.5100002289 1.6669009924 1.7449316978  -999.250000  -999.250000  -999.250000  -999.250000  -999.250000  -999.250000
 2085.0000000 2.1184871197 2.1184871197 68.183311462 0.0000000000 12.995384216  -999.250000 9.5100002289 1.6684950590 1.7464613914  -999.250000  -999.250000  -999.250000  -999.250000  -999.250000  -999.250000
 2085.5000000 2.0963189602 2.0963189602 68.380256653 0.0000000000 12.588619232  -999.250000 9.5072336197 1.6700893641 1.7479909658  -999.250000  -999.250000  -999.250000  -999.250000  -999.250000  -999.250000
 2086.0000000 2.0793359280 2.0793359280 68.579704285 0.0000000000 11.472712517  -999.250000 9.4990081787 1.6716836691 1.7495208979  -999.250000  -999.250000  -999.250000  -999.250000  -999.250000  -999.250000
