# LAS format log file from PETREL
# Project units are specified as depth units
#==================================================================
~Version information
VERS.   2.0:
WRAP.   NO:
#==================================================================
~Well
STRT .m      0.0000000000 :
STOP .m      3085.5000000 :
STEP .m     0.50000000 :
NULL .        -999.250000 :
COMP.           : COMPANY
WELL.  BIR-3   : WELL
FLD.            : FIELD
LOC.            : LOCATION
SRVC.           : SERVICE COMPANY
DATE.  2022-11-03 20:42:46   : Log Export Date {yyyy-MM-dd HH:mm:ss}
PROV.           : PROVINCE
UWI.   11000075011001   : UNIQUE WELL ID
API.            : API NUMBER
#==================================================================
~Curve
DEPT .m                   : DEPTH
DENS .g/cm3               : DENS
DEN .g/cm3                : DEN
DTC_Avg2 .us/ft           : DTC_Avg2
FLGR .gAPI                : FLGR
GR .gAPI                  : GR
PORNET_NOV14 .m3/m3       : PORNET_NOV14
CALI .in                  : CALI
RES_MIC .ohm.m            : RES_MIC
RES_DEP .ohm.m            : RES_DEP
VCL_2014 ._               : VCL_2014
SHNET ._                  : SHNET
SH ._                     : SH
SH_CAP ._                 : SH_CAP
PERMNET_NOV14 .mD         : PERMNET_NOV14
PERMNET_2015 .mD          : PERMNET_2015
~Parameter
#==================================================================
~Ascii
# ...
 1638.0000000 1.9402186871 1.9402186871 83.761718750 0.0000000000 88.218719482  -999.250000 16.402000427 0.2144999951 0.8126249909  -999.250000  -999.250000  -999.250000  -999.250000  -999.250000  -999.250000
 1638.5000000 1.7261385918 1.7261385918 83.090957642 0.0000000000 80.150321960  -999.250000 15.733899117 0.2061265111 0.8088222742  -999.250000  -999.250000  -999.250000  -999.250000  -999.250000  -999.250000
 1639.0000000 1.6571528912 1.6571528912 87.086791992 0.0000000000 84.873756409  -999.250000 17.326801300 0.2177982479 0.7754587531  -999.250000  -999.250000  -999.250000  -999.250000  -999.250000  -999.250000
 1639.5000000 1.6759936810 1.6759936810 88.104034424 0.0000000000 80.947288513  -999.250000 17.483848572 0.2069871873 0.7472515702  -999.250000  -999.250000  -999.250000  -999.250000  -999.250000  -999.250000
 1640.0000000 1.6898556948 1.6898556948 86.797698975 0.0000000000 79.482521057  -999.250000 17.606115341 0.1776907146 0.7347010970  -999.250000  -999.250000  -999.250000  -999.250000  -999.250000  -999.250000
 1640.5000000 1.7039999962 1.7039999962 87.205749512 0.0000000000 87.149810791  -999.250000 17.707550049 0.1773066521 0.6683378816  -999.250000  -999.250000  -999.250000  -999.250000  -999.250000  -999.250000
 1641.0000000 1.6640216112 1.6640216112 84.511222839 0.0000000000 87.357124329  -999.250000 17.383184433 0.1788502783 0.6328342557  -999.250000  -999.250000  -999.250000  -999.250000  -999.250000  -999.250000
 1641.5000000 1.6419013739 1.6419013739 83.023979187 0.0000000000 83.613319397  -999.250000 15.204314232 0.1770000011 0.6260023713  -999.250000  -999.250000  -999.250000  -999.250000  -999.250000  -999.250000
 1642.0000000 1.8352876902 1.8352876902 83.024986267 0.0000000000 84.362266541  -999.250000 15.834948540 0.1820584983 0.6623413563  -999.250000  -999.250000  -999.250000  -999.250000  -999.250000  -999.250000
 1642.5000000 2.1032962799 2.1032962799 86.241569519 0.0000000000 83.932098389  -999.250000 12.609879494 0.2030296177 0.7550016046  -999.250000  -999.250000  -999.250000  -999.250000  -999.250000  -999.250000
 1643.0000000 2.0839705467 2.0839705467 91.204429626 0.0000000000 87.075630188  -999.250000 12.666518211 0.2154115289 0.6977253556  -999.250000  -999.250000  -999.250000  -999.250000  -999.250000  -999.250000
 1643.5000000 1.8213731050 1.8213731050 86.246879578 0.0000000000 81.513847351  -999.250000 14.519303322 0.2143867165 0.7356181145  -999.250000  -999.250000  -999.250000  -999.250000  -999.250000  -999.250000
 1644.0000000 1.9295817614 1.9295817614 78.918540955 0.0000000000 79.039169312  -999.250000 13.424468994 1.0080288649 0.8382716775  -999.250000  -999.250000  -999.250000  -999.250000  -999.250000  -999.250000
 1644.5000000 2.4613652229 2.4613652229 74.739311218 0.0000000000 30.438114166  -999.250000 10.001307487 0.7940961719 0.5312307477  -999.250000  -999.250000  -999.250000  -999.250000  -999.250000  -999.250000
 1645.0000000 2.4163682461 2.4163682461 77.465057373 0.0000000000 26.294397354  -999.250000 9.9786739349 0.6302265525 0.5039687753  -999.250000  -999.250000  -999.250000  -999.250000  -999.250000  -999.250000
 1645.5000000 2.4663491249 2.4663491249 71.094680786 0.0000000000 36.440948486  -999.250000 10.072243690 1.1902513504 0.5652906299  -999.250000  -999.250000  -999.250000  -999.250000  -999.250000  -999.250000
 1646.0000000 2.4945247173 2.4945247173 68.437744141 0.0000000000 55.125663757  -999.250000 10.064999580 1.0233718157 0.8152251840  -999.250000  -999.250000  -999.250000  -999.250000  -999.250000  -999.250000
 1646.5000000 2.5729165077 2.5729165077 59.082717896 0.0000000000 34.287364960  -999.250000 10.107662201 5.3974790573 2.6829776764  -999.250000  -999.250000  -999.250000  -999.250000  -999.250000  -999.250000
 1647.0000000 2.6767020226 2.6767020226 61.800148010 0.0000000000 34.131271362  -999.250000 10.377750397 3.3977460861 1.2357918024  -999.250000  -999.250000  -999.250000  -999.250000  -999.250000  -999.250000
 1647.5000000 2.4853355885 2.4853355885 71.938575745 0.0000000000 44.950351715  -999.250000 10.737294197 0.3614131212 0.4053034484  -999.250000  -999.250000  -999.250000  -999.250000  -999.250000  -999.250000
 1648.0000000 2.2842211723 2.2842211723 94.571617126 0.0000000000 47.724407196  -999.250000 14.640746117 0.3492307663 0.3213012815  -999.250000  -999.250000  -999.250000  -999.250000  -999.250000  -999.250000
 1648.5000000 2.3758013248 2.3758013248 78.232856750 0.0000000000 82.643615723  -999.250000 10.958134651 0.2590384483 0.3985192478  -999.250000  -999.250000  -999.250000  -999.250000  -999.250000  -999.250000
 1649.0000000 2.5345962048 2.5345962048 52.087905884 0.0000000000 104.43830109  -999.250000 11.274972916 0.7041265965 1.4128910303  -999.250000  -999.250000  -999.250000  -999.250000  -999.250000  -999.250000
 1649.5000000 2.8538463116 2.8538463116 49.842037201 0.0000000000 37.907436371  -999.250000 10.335312843 189.11738586 21.141662598  -999.250000  -999.250000  -999.250000  -999.250000  -999.250000  -999.250000
 1650.0000000 2.8873701096 2.8873701096 49.902275085 0.0000000000 23.005487442  -999.250000 10.260598183 228.02493286 115.14336395  -999.250000  -999.250000  -999.250000  -999.250000  -999.250000  -999.250000
 1650.5000000 2.9416828156 2.9416828156 50.867179871 0.0000000000 19.558784485  -999.250000 10.288906097 2000.0000000 118.46394348  -999.250000  -999.250000  -999.250000  -999.250000  -999.250000  -999.250000
 1651.0000000 2.9533333778 2.9533333778 51.324626923 0.0000000000 15.610333443  -999.250000 10.387666702 55.368331909 26.259666443  -999.250000  -999.250000  -999.250000  -999.250000  -999.250000  -999.250000
 1651.5000000 2.9109294415 2.9109294415 51.771030426 0.0000000000 18.417285919  -999.250000 10.315789223 48.736736298 8.4507474899  -999.250000  -999.250000  -999.250000  -999.250000  -999.250000  -999.250000
 1652.0000000 2.9057347775 2.9057347775 51.327381134 0.0000000000 24.505563736  -999.250000 10.311265945 1606.6263428 18.884365082  -999.250000  -999.250000  -999.250000  -999.250000  -999.250000  -999.250000
 1652.5000000 2.8620624542 2.8620624542 54.272857666 0.0000000000 27.967893600  -999.250000 10.338010788 68.153831482 22.595367432  -999.250000  -999.250000  -999.250000  -999.250000  -999.250000  -999.250000
 1653.0000000 2.7926921844 2.7926921844 52.742099762 0.0000000000 38.695663452  -999.250000 10.135918617 99.131370544 10.969538689  -999.250000  -999.250000  -999.250000  -999.250000  -999.250000  -999.250000
 1653.5000000 2.8867981434 2.8867981434 50.395961761 0.0000000000 17.200115204  -999.250000 10.072687149 162.99082947 130.68003845  -999.250000  -999.250000  -999.250000  -999.250000  -999.250000  -999.250000
 1654.0000000 2.9529263973 2.9529263973 50.441383362 0.0000000000 17.248353958  -999.250000 10.073018074 16.883703232 270.03524780  -999.250000  -999.250000  -999.250000  -999.250000  -999.250000  -999.250000
 1654.5000000 2.9230000973 2.9230000973 51.031196594 0.0000000000 15.698563576  -999.250000 10.082695007 88.105644226 329.30120850  -999.250000  -999.250000  -999.250000  -999.250000  -999.250000  -999.250000
 1655.0000000 2.9273588657 2.9273588657 51.502048492 0.0000000000 14.835294724  -999.250000 10.106739998 225.64117432 176.96382141  -999.250000  -999.250000  -999.250000  -999.250000  -999.250000  -999.250000
 1655.5000000 2.8469257355 2.8469257355 53.388984680 0.0000000000 23.220293045  -999.250000 10.112999916 26.523794174 16.861616135  -999.250000  -999.250000  -999.250000  -999.250000  -999.250000  -999.250000
 1656.0000000 2.8865509033 2.8865509033 52.859111786 0.0000000000 20.752691269  -999.250000 10.112574577 5.5974307060 18.904232025  -999.250000  -999.250000  -999.250000  -999.250000  -999.250000  -999.250000
 1656.5000000 2.9017639160 2.9017639160 52.163715363 0.0000000000 18.654069901  -999.250000 10.170218468 12.350070953 86.157989502  -999.250000  -999.250000  -999.250000  -999.250000  -999.250000  -999.250000
 1657.0000000 2.9294118881 2.9294118881 52.342819214 0.0000000000 20.320585251  -999.250000 10.204297066 3.2824406624 16.109766006  -999.250000  -999.250000  -999.250000  -999.250000  -999.250000  -999.250000
