# LAS format log file from PETREL
# Project units are specified as depth units
#==================================================================
~Version information
VERS.   2.0:
WRAP.   NO:
#==================================================================
~Well
STRT .m      0.0000000000 :
STOP .m      3085.5000000 :
STEP .m     0.50000000 :
NULL .        -999.250000 :
COMP.           : COMPANY
WELL.  BIR-3   : WELL
FLD.            : FIELD
LOC.            : LOCATION
SRVC.           : SERVICE COMPANY
DATE.  2022-11-03 20:42:46   : Log Export Date {yyyy-MM-dd HH:mm:ss}
PROV.           : PROVINCE
UWI.   11000075011001   : UNIQUE WELL ID
API.            : API NUMBER
#==================================================================
~Curve
DEPT .m                   : DEPTH
DENS .g/cm3               : DENS
DEN .g/cm3                : DEN
DTC_Avg2 .us/ft           : DTC_Avg2
FLGR .gAPI                : FLGR
GR .gAPI                  : GR
PORNET_NOV14 .m3/m3       : PORNET_NOV14
CALI .in                  : CALI
RES_MIC .ohm.m            : RES_MIC
RES_DEP .ohm.m            : RES_DEP
VCL_2014 ._               : VCL_2014
SHNET ._                  : SHNET
SH ._                     : SH
SH_CAP ._                 : SH_CAP
PERMNET_NOV14 .mD         : PERMNET_NOV14
PERMNET_2015 .mD          : PERMNET_2015
~Parameter
#==================================================================
~Ascii
# ...
 2925.0000000 2.2739903927 2.2739903927 94.022331238 0.0000000000 59.369075775 0.2022781223 6.5881729126 1.2342402935 2.6161441803 0.2129543722 0.7556369901 0.7473027706 0.8378307223 97.151679993 122.72474670
 2925.5000000 2.2127146721 2.2127146721 95.344963074 0.0000000000 46.569057465 0.2228109241 6.5891942978 1.2082660198 2.8986377716 0.1297805607 0.7967387438 0.7964247465 0.8473115563 176.59866333 250.39907837
 2926.0000000 2.2545535564 2.2545535564 91.285675049 0.0000000000 55.443878174 0.2055854052 6.5920000076 1.3994544744 3.3747310638 0.2051782310 0.7929347157 0.7971405983 0.8349753618 105.76920319 395.25341797
 2926.5000000 2.2947564125 2.2947564125 91.426300049 0.0000000000 58.118717194 0.1967769414 6.5920000076 1.1791025400 3.1022307873 0.2067013532 0.7732562423 0.7681064606 0.8319837451 81.448036194 145.39463806
 2927.0000000 2.3001842499 2.3001842499 88.615386963 0.0000000000 63.603179932 0.1908425540 6.5918893814 1.5424743891 3.3891155720 0.2492102981 0.7676152587 0.7698629498 0.8228722811 68.754089355 243.62281799
 2927.5000000 2.2834806442 2.2834806442 93.891036987 0.0000000000 56.061077118 0.1959994584 6.5867304802 1.4514135122 3.1257212162 0.1950794309 0.7774509788 0.7664795518 0.8336233497 79.324180603 179.47871399
 2928.0000000 2.2439360619 2.2439360619 94.854484558 0.0000000000 56.392440796 0.2096679807 6.5863933563 1.4222575426 3.1344816685 0.2036071718 0.7805387974 0.7874388099 0.8351980448 118.33307648 111.58547974
 2928.5000000 2.2267212868 2.2267212868 97.147377014 0.0000000000 57.712585449 0.2153403759 6.5879998207 1.3325384855 2.6031346321 0.2223926336 0.7662197351 0.7654661536 0.8413532972 139.16308594 203.47766113
 2929.0000000 2.4048204422 2.4048204422 82.200080872 0.0000000000 99.543113708  -999.250000 6.6010065079 3.3086280823 4.1078586578 0.5009565353 0.0000000000 0.6827225685 0.0000000000  -999.250000  -999.250000
 2929.5000000 2.4873542786 2.4873542786 87.570625305 0.0000000000 81.955116272  -999.250000 6.6867966652 1.3278797865 2.7397260666 0.3115868866 0.4433923960 0.5226827264 0.5618965626  -999.250000  -999.250000
 2930.0000000 2.2868463993 2.2868463993 95.880912781 0.0000000000 48.969383240 0.1958662570 6.6323409081 1.3093456030 2.8676879406 0.1499509662 0.7603299022 0.7540102601 0.8296684027 78.057098389 97.084419250
 2930.5000000 2.2260320187 2.2260320187 95.207611084 0.0000000000 48.015415192 0.2161723077 6.6109871864 1.1611423492 3.0384385586 0.1532275975 0.7939147949 0.7964890003 0.8393698335 141.01931763 104.10297394
 2931.0000000 2.3047018051 2.3047018051 90.039314270 0.0000000000 51.481399536 0.1886237115 6.5960144997 1.4014903307 3.1790096760 0.1740839928 0.7598979473 0.7597257495 0.8214600086 62.218765259 208.06294250
 2931.5000000 2.2897436619 2.2897436619 94.205337524 0.0000000000 52.196048737 0.1896893382 6.5773077011 1.6571025848 2.9542307854 0.1820454001 0.7493568659 0.7511121631 0.8210284114 64.026062012 34.505630493
 2932.0000000 2.3079135418 2.3079135418 98.205085754 0.0000000000 62.983589172 0.1923765093 6.5876893997 1.2729631662 2.8448801041 0.2459451556 0.7498075366 0.7407528162 0.8241217136 69.280822754 103.96612549
 2932.5000000 2.2026431561 2.2026431561 100.65785217 0.0000000000 57.485771179 0.2294245809 6.6223902702 1.0494912863 2.5534431934 0.2289162725 0.7863380909 0.7870935202 0.8453229666 206.27922058 321.20263672
 2933.0000000 2.3629007339 2.3629007339 84.557518005 0.0000000000 79.858047485 0.1587472558 6.6399998665 2.1977949142 3.2163558006 0.3531889021 0.6694909334 0.6950125694 0.7926633954 26.071767807 48.734962463
 2933.5000000 2.3810625076 2.3810625076 87.112503052 0.0000000000 62.632373810 0.1628140360 6.6399998665 1.2576875687 2.3738749027 0.2478639483 0.6556545496 0.6392866969 0.8026192784 28.714620590 13.963938713
 2934.0000000 2.4000079632 2.4000079632 83.063552856 0.0000000000 69.331558228 0.1503621042 6.6360001564 1.9644479752 3.0926959515 0.2853199840 0.6540894508 0.6682781577 0.7865403891 19.056018829 54.283550262
 2934.5000000 2.3582720757 2.3582720757 87.465721130 0.0000000000 55.566452026 0.1693932265 6.6399998665 1.4292912483 2.7324862480 0.1841925681 0.7133044004 0.6923043132 0.8098284602 35.435684204 125.37525177
 2935.0000000 2.2278606892 2.2278606892 98.215057373 0.0000000000 44.216903687 0.2129991651 6.6399998665 1.4933910370 3.0702805519 0.1273922771 0.7942596674 0.7863777280 0.8360708952 125.22947693 194.88746643
 2935.5000000 2.1565930843 2.1565930843 102.92879486 0.0000000000 44.797466278 0.2385132164 6.6399998665 1.4113205671 3.5457723141 0.1259936392 0.8398141265 0.8361392617 0.8513838053 266.08053589 1022.6515503
 2936.0000000 2.1754567623 2.1754567623 98.232757568 0.0000000000 43.811756134 0.2359209210 6.6443653107 1.3129807711 3.2747066021 0.1371183991 0.8111688495 0.8221416473 0.8466364145 245.46533203 440.09930420
 2936.5000000 2.2181487083 2.2181487083 87.879867554 0.0000000000 52.543468475 0.2209793180 6.6479997635 1.2357455492 2.4174208641 0.1938355118 0.7517657280 0.7584166527 0.8328832388 157.76940918 229.35020447
 2937.0000000 2.3538846970 2.3538846970 84.465896606 0.0000000000 81.792381287  -999.250000 6.6460385323 1.9776923656 2.7651154995 0.4066722989 0.1302584112 0.6717889905 0.1454747468  -999.250000  -999.250000
 2937.5000000 2.4773943424 2.4773943424 84.124000549 0.0000000000 88.733688354  -999.250000 6.6332626343 1.4055192471 2.4065544605 0.4173041582 0.0000000000 0.4904657304 0.0000000000  -999.250000  -999.250000
 2938.0000000 2.5125095844 2.5125095844 87.674743652 0.0000000000 99.932464600  -999.250000 6.6830129623 2.0531442165 2.5461571217 0.4818605781 0.0000000000 0.3895318508 0.0000000000  -999.250000  -999.250000
 2938.5000000 2.4301118851 2.4301118851 90.144584656 0.0000000000 78.709915161 0.1444886625 6.6785759926 1.5039839745 1.9209760427 0.3258785307 0.5255576372 0.4862951934 0.7865042686 14.074604034 59.880481720
 2939.0000000 2.3684358597 2.3684358597 83.293975830 0.0000000000 73.234680176 0.1541882604 6.6719999313 2.1393206120 2.4653253555 0.3320228457 0.5735650659 0.6140838861 0.7800087929 21.222036362 26.071378708
 2939.5000000 2.4886345863 2.4886345863 75.438858032 0.0000000000 80.752479553 0.1128760278 6.6753463745 2.7093656063 3.2699806690 0.3702013195 0.4942346811 0.5036816597 0.7496869564 2.5560817719 1.3495831490
 2940.0000000 2.5466763973 2.5466763973 73.341781616 0.0000000000 89.703918457 0.0530869812 6.7347912788 3.9749133587 3.8687837124 0.4424967170 0.1372109205 0.3949258626 0.2525316179 0.1728837639 0.1693144888
 2940.5000000 2.5716686249 2.5716686249 74.057136536 0.0000000000 98.299186707  -999.250000 6.7461423874 3.8418383598 3.5433647633 0.4868886769 0.0000000000 0.3086905181 0.0000000000  -999.250000  -999.250000
 2941.0000000 2.5680866241 2.5680866241 76.084426880 0.0000000000 96.404113770  -999.250000 6.7402977943 3.3573331833 3.2032339573 0.4394555688 0.1396951079 0.2974939346 0.3148640990  -999.250000  -999.250000
 2941.5000000 2.5340945721 2.5340945721 77.261634827 0.0000000000 95.815452576  -999.250000 6.7323622704 3.2410562038 2.9846057892 0.4817150533 0.0000000000 0.3583176434 0.0000000000  -999.250000  -999.250000
 2942.0000000 2.5553846359 2.5553846359 74.794517517 0.0000000000 99.397384644  -999.250000 6.7375383377 3.9334616661 3.3811538219 0.4870179594 0.0000000000 0.3212706149 0.0000000000  -999.250000  -999.250000
 2942.5000000 2.5665457249 2.5665457249 74.147903442 0.0000000000 100.94615173  -999.250000 6.7322573662 3.7586383820 3.3328831196 0.4988428950 0.0000000000 0.3036286533 0.0000000000  -999.250000  -999.250000
 2943.0000000 2.5849182606 2.5849182606 80.378799438 0.0000000000 96.313873291  -999.250000 6.7287116051 1.6819038391 2.2488844395 0.4570136368 0.0000000000 0.1039479896 0.0000000000  -999.250000  -999.250000
 2943.5000000 2.5165224075 2.5165224075 81.871421814 0.0000000000 93.691650391  -999.250000 6.6405224800 2.4373235703 2.4133331776 0.4565024674 0.0000000000 0.3531049490 0.0000000000  -999.250000  -999.250000
 2944.0000000 2.5462644100 2.5462644100 82.402534485 0.0000000000 106.31066132  -999.250000 6.6752643585 2.3992435932 2.3809566498 0.5170484185 0.0000000000 0.2863627374 0.0000000000  -999.250000  -999.250000
