# LAS format log file from PETREL
# Project units are specified as depth units
#==================================================================
~Version information
VERS.   2.0:
WRAP.   NO:
#==================================================================
~Well
STRT .m      0.0000000000 :
STOP .m      3085.5000000 :
STEP .m     0.50000000 :
NULL .        -999.250000 :
COMP.           : COMPANY
WELL.  BIR-3   : WELL
FLD.            : FIELD
LOC.            : LOCATION
SRVC.           : SERVICE COMPANY
DATE.  2022-11-03 20:42:46   : Log Export Date {yyyy-MM-dd HH:mm:ss}
PROV.           : PROVINCE
UWI.   11000075011001   : UNIQUE WELL ID
API.            : API NUMBER
#==================================================================
~Curve
DEPT .m                   : DEPTH
DENS .g/cm3               : DENS
DEN .g/cm3                : DEN
DTC_Avg2 .us/ft           : DTC_Avg2
FLGR .gAPI                : FLGR
GR .gAPI                  : GR
PORNET_NOV14 .m3/m3       : PORNET_NOV14
CALI .in                  : CALI
RES_MIC .ohm.m            : RES_MIC
RES_DEP .ohm.m            : RES_DEP
VCL_2014 ._               : VCL_2014
SHNET ._                  : SHNET
SH ._                     : SH
SH_CAP ._                 : SH_CAP
PERMNET_NOV14 .mD         : PERMNET_NOV14
PERMNET_2015 .mD          : PERMNET_2015
~Parameter
#==================================================================
~Ascii
# ...
 1852.5000000 2.0876562595 2.0876562595 67.982528687 0.0000000000 12.355639458  -999.250000 10.248583794 0.9271147847 1.0351074934  -999.250000  -999.250000  -999.250000  -999.250000  -999.250000  -999.250000
 1853.0000000 2.0927557945 2.0927557945 68.138374329 0.0000000000 13.279839516  -999.250000 10.237133980 0.9287090302 1.0366370678  -999.250000  -999.250000  -999.250000  -999.250000  -999.250000  -999.250000
 1853.5000000 2.1066317558 2.1066317558 68.148513794 0.0000000000 13.122666359  -999.250000 10.324325562 0.9303035140 1.0381669998  -999.250000  -999.250000  -999.250000  -999.250000  -999.250000  -999.250000
 1854.0000000 2.0842916965 2.0842916965 68.140647888 0.0000000000 14.409104347  -999.250000 10.292541504 0.9318977594 1.0396965742  -999.250000  -999.250000  -999.250000  -999.250000  -999.250000  -999.250000
 1854.5000000 2.0752708912 2.0752708912 68.132392883 0.0000000000 13.359812737  -999.250000 10.274729729 0.9334923029 1.0412266254  -999.250000  -999.250000  -999.250000  -999.250000  -999.250000  -999.250000
 1855.0000000 2.0840001106 2.0840001106 68.302307129 0.0000000000 13.167477608  -999.250000 10.267354012 0.9350865483 1.0427561998  -999.250000  -999.250000  -999.250000  -999.250000  -999.250000  -999.250000
 1855.5000000 2.0773787498 2.0773787498 68.517547607 0.0000000000 13.050000191  -999.250000 10.289091110 0.9366809726 1.0442861319  -999.250000  -999.250000  -999.250000  -999.250000  -999.250000  -999.250000
 1856.0000000 2.0901794434 2.0901794434 68.534904480 0.0000000000 12.952987671  -999.250000 10.246089935 0.9382752180 1.0458158255  -999.250000  -999.250000  -999.250000  -999.250000  -999.250000  -999.250000
 1856.5000000 2.0882763863 2.0882763863 68.265106201 0.0000000000 12.725629807  -999.250000 10.299970627 0.9398697615 1.0473457575  -999.250000  -999.250000  -999.250000  -999.250000  -999.250000  -999.250000
 1857.0000000 2.0870392323 2.0870392323 68.482315063 0.0000000000 12.796394348  -999.250000 10.277157784 0.9414639473 1.0488754511  -999.250000  -999.250000  -999.250000  -999.250000  -999.250000  -999.250000
 1857.5000000 2.0995619297 2.0995619297 68.405166626 0.0000000000 12.150058746  -999.250000 10.291482925 0.9430583715 1.0504052639  -999.250000  -999.250000  -999.250000  -999.250000  -999.250000  -999.250000
 1858.0000000 2.0886058807 2.0886058807 68.495841980 0.0000000000 12.765995026  -999.250000 10.269390106 0.9446526766 1.0519349575  -999.250000  -999.250000  -999.250000  -999.250000  -999.250000  -999.250000
 1858.5000000 2.0744709969 2.0744709969 68.593704224 0.0000000000 12.912298203  -999.250000 10.275939941 0.9462472796 1.0534648895  -999.250000  -999.250000  -999.250000  -999.250000  -999.250000  -999.250000
 1859.0000000 2.0877227783 2.0877227783 68.613563538 0.0000000000 13.170000076  -999.250000 10.282909393 0.9478414059 1.0549945831  -999.250000  -999.250000  -999.250000  -999.250000  -999.250000  -999.250000
 1859.5000000 2.0868790150 2.0868790150 68.282386780 0.0000000000 12.324859619  -999.250000 10.249282837 0.9494358301 1.0565243959  -999.250000  -999.250000  -999.250000  -999.250000  -999.250000  -999.250000
 1860.0000000 2.0798974037 2.0798974037 68.338638306 0.0000000000 12.114505768  -999.250000 10.281723976 0.9510301948 1.0580542088  -999.250000  -999.250000  -999.250000  -999.250000  -999.250000  -999.250000
 1860.5000000 2.0949776173 2.0949776173 68.494224548 0.0000000000 11.865128517  -999.250000 10.317072868 0.9526247382 1.0595841408  -999.250000  -999.250000  -999.250000  -999.250000  -999.250000  -999.250000
 1861.0000000 2.0774302483 2.0774302483 68.544792175 0.0000000000 13.101110458  -999.250000 10.329862595 0.9542189240 1.0611138344  -999.250000  -999.250000  -999.250000  -999.250000  -999.250000  -999.250000
 1861.5000000 2.1077702045 2.1077702045 68.767082214 0.0000000000 14.469263077  -999.250000 10.366930008 0.9558132887 1.0626435280  -999.250000  -999.250000  -999.250000  -999.250000  -999.250000  -999.250000
 1862.0000000 2.1131315231 2.1131315231 68.562500000 0.0000000000 15.007864952  -999.250000 10.361934662 0.9574076533 1.0641733408  -999.250000  -999.250000  -999.250000  -999.250000  -999.250000  -999.250000
 1862.5000000 2.0945467949 2.0945467949 68.202270508 0.0000000000 13.817987442  -999.250000 10.342102051 0.9590021968 1.0657032728  -999.250000  -999.250000  -999.250000  -999.250000  -999.250000  -999.250000
 1863.0000000 2.1014566422 2.1014566422 68.271125793 0.0000000000 14.129400253  -999.250000 10.308204651 0.9605963826 1.0672329664  -999.250000  -999.250000  -999.250000  -999.250000  -999.250000  -999.250000
 1863.5000000 2.0930984020 2.0930984020 68.228118896 0.0000000000 12.221577644  -999.250000 10.351211548 0.9621906877 1.0687626600  -999.250000  -999.250000  -999.250000  -999.250000  -999.250000  -999.250000
 1864.0000000 2.0828845501 2.0828845501 68.552848816 0.0000000000 12.259470940  -999.250000 10.380826950 0.9637851715 1.0702925920  -999.250000  -999.250000  -999.250000  -999.250000  -999.250000  -999.250000
 1864.5000000 2.0809912682 2.0809912682 68.271369934 0.0000000000 14.526552200  -999.250000 10.358800888 0.9653795958 1.0718224049  -999.250000  -999.250000  -999.250000  -999.250000  -999.250000  -999.250000
 1865.0000000 2.0775327682 2.0775327682 68.376480103 0.0000000000 11.781445503  -999.250000 10.354532242 0.9669738412 1.0733522177  -999.250000  -999.250000  -999.250000  -999.250000  -999.250000  -999.250000
 1865.5000000 2.0769999027 2.0769999027 68.475708008 0.0000000000 12.733114243  -999.250000 10.371544838 0.9685681462 1.0748817921  -999.250000  -999.250000  -999.250000  -999.250000  -999.250000  -999.250000
 1866.0000000 2.1019053459 2.1019053459 68.715377808 0.0000000000 12.579565048  -999.250000 10.367635727 0.9701626301 1.0764117241  -999.250000  -999.250000  -999.250000  -999.250000  -999.250000  -999.250000
 1866.5000000 2.0937509537 2.0937509537 68.488983154 0.0000000000 13.533589363  -999.250000 10.387750626 0.9717569947 1.0779416561  -999.250000  -999.250000  -999.250000  -999.250000  -999.250000  -999.250000
 1867.0000000 2.0934686661 2.0934686661 68.671020508 0.0000000000 13.435500145  -999.250000 10.370594025 0.9733513594 1.0794713497  -999.250000  -999.250000  -999.250000  -999.250000  -999.250000  -999.250000
 1867.5000000 2.0868732929 2.0868732929 68.727516174 0.0000000000 12.217543602  -999.250000 10.369936943 0.9749455452 1.0810010433  -999.250000  -999.250000  -999.250000  -999.250000  -999.250000  -999.250000
 1868.0000000 2.0772178173 2.0772178173 68.451965332 0.0000000000 12.369153976  -999.250000 10.405590057 0.9765400887 1.0825309753  -999.250000  -999.250000  -999.250000  -999.250000  -999.250000  -999.250000
 1868.5000000 2.0715107918 2.0715107918 68.487854004 0.0000000000 12.292734146  -999.250000 10.351962090 0.9781345129 1.0840607882  -999.250000  -999.250000  -999.250000  -999.250000  -999.250000  -999.250000
 1869.0000000 2.0891354084 2.0891354084 68.422554016 0.0000000000 10.351017952  -999.250000 10.376999855 0.9797288179 1.0855904818  -999.250000  -999.250000  -999.250000  -999.250000  -999.250000  -999.250000
 1869.5000000 2.1052186489 2.1052186489 68.478019714 0.0000000000 11.086873055  -999.250000 10.376639366 0.9813230038 1.0871201754  -999.250000  -999.250000  -999.250000  -999.250000  -999.250000  -999.250000
 1870.0000000 2.0823414326 2.0823414326 68.401443481 0.0000000000 10.356375694  -999.250000 10.420120239 0.9829176068 1.0886501074  -999.250000  -999.250000  -999.250000  -999.250000  -999.250000  -999.250000
 1870.5000000 2.1250872612 2.1250872612 68.237442017 0.0000000000 11.585261345  -999.250000 10.552082062 0.9845119119 1.0901799202  -999.250000  -999.250000  -999.250000  -999.250000  -999.250000  -999.250000
 1871.0000000 2.1282908916 2.1282908916 68.425437927 0.0000000000 12.557463646  -999.250000 10.594974518 0.9861063361 1.0917097330  -999.250000  -999.250000  -999.250000  -999.250000  -999.250000  -999.250000
 1871.5000000 2.0829999447 2.0829999447 68.479087830 0.0000000000 11.596786499  -999.250000 10.482935905 0.9877005219 1.0932394266  -999.250000  -999.250000  -999.250000  -999.250000  -999.250000  -999.250000
