# LAS format log file from PETREL
# Project units are specified as depth units
#==================================================================
~Version information
VERS.   2.0:
WRAP.   NO:
#==================================================================
~Well
STRT .m      0.0000000000 :
STOP .m      3085.5000000 :
STEP .m     0.50000000 :
NULL .        -999.250000 :
COMP.           : COMPANY
WELL.  BIR-3   : WELL
FLD.            : FIELD
LOC.            : LOCATION
SRVC.           : SERVICE COMPANY
DATE.  2022-11-03 20:42:46   : Log Export Date {yyyy-MM-dd HH:mm:ss}
PROV.           : PROVINCE
UWI.   11000075011001   : UNIQUE WELL ID
API.            : API NUMBER
#==================================================================
~Curve
DEPT .m                   : DEPTH
DENS .g/cm3               : DENS
DEN .g/cm3                : DEN
DTC_Avg2 .us/ft           : DTC_Avg2
FLGR .gAPI                : FLGR
GR .gAPI                  : GR
PORNET_NOV14 .m3/m3       : PORNET_NOV14
CALI .in                  : CALI
RES_MIC .ohm.m            : RES_MIC
RES_DEP .ohm.m            : RES_DEP
VCL_2014 ._               : VCL_2014
SHNET ._                  : SHNET
SH ._                     : SH
SH_CAP ._                 : SH_CAP
PERMNET_NOV14 .mD         : PERMNET_NOV14
PERMNET_2015 .mD          : PERMNET_2015
~Parameter
#==================================================================
~Ascii
# ...
 1950.0000000 2.0762755871 2.0762755871 68.281517029 0.0000000000 11.754013062  -999.250000 9.7396602631 1.2380162477 1.3334170580  -999.250000  -999.250000  -999.250000  -999.250000  -999.250000  -999.250000
 1950.5000000 2.0977821350 2.0977821350 68.257217407 0.0000000000 13.430410385  -999.250000 9.6742181778 1.2396105528 1.3349468708  -999.250000  -999.250000  -999.250000  -999.250000  -999.250000  -999.250000
 1951.0000000 2.0921626091 2.0921626091 68.302581787 0.0000000000 13.459727287  -999.250000 9.6143627167 1.2412048578 1.3364766836  -999.250000  -999.250000  -999.250000  -999.250000  -999.250000  -999.250000
 1951.5000000 2.0795888901 2.0795888901 68.675254822 0.0000000000 11.616558075  -999.250000 9.5459995270 1.2427990437 1.3380062580  -999.250000  -999.250000  -999.250000  -999.250000  -999.250000  -999.250000
 1952.0000000 2.0900144577 2.0900144577 68.627105713 0.0000000000 11.786995888  -999.250000 9.5459995270 1.2443935871 1.3395363092  -999.250000  -999.250000  -999.250000  -999.250000  -999.250000  -999.250000
 1952.5000000 2.0857582092 2.0857582092 68.524345398 0.0000000000 14.310976982  -999.250000 9.5439605713 1.2459878922 1.3410660028  -999.250000  -999.250000  -999.250000  -999.250000  -999.250000  -999.250000
 1953.0000000 2.0952355862 2.0952355862 68.695297241 0.0000000000 12.488807678  -999.250000 9.5419998169 1.2475824356 1.3425958157  -999.250000  -999.250000  -999.250000  -999.250000  -999.250000  -999.250000
 1953.5000000 2.0782058239 2.0782058239 68.427627563 0.0000000000 12.726828575  -999.250000 9.5549650192 1.2491765022 1.3441255093  -999.250000  -999.250000  -999.250000  -999.250000  -999.250000  -999.250000
 1954.0000000 2.0806121826 2.0806121826 68.608261108 0.0000000000 12.775432587  -999.250000 9.5661792755 1.2507710457 1.3456554413  -999.250000  -999.250000  -999.250000  -999.250000  -999.250000  -999.250000
 1954.5000000 2.0779695511 2.0779695511 68.603225708 0.0000000000 11.416198730  -999.250000 9.5819997787 1.2523653507 1.3471851349  -999.250000  -999.250000  -999.250000  -999.250000  -999.250000  -999.250000
 1955.0000000 2.0707564354 2.0707564354 68.884506226 0.0000000000 11.045900345  -999.250000 9.5789165497 1.2539598942 1.3487150669  -999.250000  -999.250000  -999.250000  -999.250000  -999.250000  -999.250000
 1955.5000000 2.0870833397 2.0870833397 68.527557373 0.0000000000 13.112780571  -999.250000 9.5780000687 1.2555539608 1.3502446413  -999.250000  -999.250000  -999.250000  -999.250000  -999.250000  -999.250000
 1956.0000000 2.0999791622 2.0999791622 68.710426331 0.0000000000 13.070770264  -999.250000 9.5819997787 1.2571486235 1.3517746925  -999.250000  -999.250000  -999.250000  -999.250000  -999.250000  -999.250000
 1956.5000000 2.1064419746 2.1064419746 68.471580505 0.0000000000 15.807645798  -999.250000 9.5780000687 1.2587428093 1.3533042669  -999.250000  -999.250000  -999.250000  -999.250000  -999.250000  -999.250000
 1957.0000000 2.0985851288 2.0985851288 68.801818848 0.0000000000 14.501276016  -999.250000 9.5740003586 1.2603372335 1.3548341990  -999.250000  -999.250000  -999.250000  -999.250000  -999.250000  -999.250000
 1957.5000000 2.1019759178 2.1019759178 68.821647644 0.0000000000 14.378911018  -999.250000 9.5740003586 1.2619315386 1.3563637733  -999.250000  -999.250000  -999.250000  -999.250000  -999.250000  -999.250000
 1958.0000000 2.1044616699 2.1044616699 68.385368347 0.0000000000 14.225308418  -999.250000 9.5770769119 1.2635260820 1.3578938246  -999.250000  -999.250000  -999.250000  -999.250000  -999.250000  -999.250000
 1958.5000000 2.0988509655 2.0988509655 68.373664856 0.0000000000 13.733974457  -999.250000 9.5942983627 1.2651202679 1.3594233990  -999.250000  -999.250000  -999.250000  -999.250000  -999.250000  -999.250000
 1959.0000000 2.0879919529 2.0879919529 68.371429443 0.0000000000 17.312591553  -999.250000 9.6353225708 1.2667146921 1.3609533310  -999.250000  -999.250000  -999.250000  -999.250000  -999.250000  -999.250000
 1959.5000000 2.0683839321 2.0683839321 68.767646790 0.0000000000 13.943043709  -999.250000 9.6339998245 1.2683089972 1.3624830246  -999.250000  -999.250000  -999.250000  -999.250000  -999.250000  -999.250000
 1960.0000000 2.0725705624 2.0725705624 68.732124329 0.0000000000 12.102346420  -999.250000 9.6339998245 1.2699035406 1.3640130758  -999.250000  -999.250000  -999.250000  -999.250000  -999.250000  -999.250000
 1960.5000000 2.0597884655 2.0597884655 68.494209290 0.0000000000 11.891249657  -999.250000 9.6358652115 1.2714977264 1.3655426502  -999.250000  -999.250000  -999.250000  -999.250000  -999.250000  -999.250000
 1961.0000000 2.0589079857 2.0589079857 68.564857483 0.0000000000 13.578577995  -999.250000 9.6565456390 1.2730921507 1.3670724630  -999.250000  -999.250000  -999.250000  -999.250000  -999.250000  -999.250000
 1961.5000000 2.0792896748 2.0792896748 68.688995361 0.0000000000 11.772686005  -999.250000 9.6211204529 1.2746865749 1.3686023951  -999.250000  -999.250000  -999.250000  -999.250000  -999.250000  -999.250000
 1962.0000000 2.0819840431 2.0819840431 68.933738708 0.0000000000 13.826637268  -999.250000 9.6101436615 1.2762809992 1.3701322079  -999.250000  -999.250000  -999.250000  -999.250000  -999.250000  -999.250000
 1962.5000000 2.0859999657 2.0859999657 68.642669678 0.0000000000 13.328336716  -999.250000 9.7607088089 1.2778751850 1.3716619015  -999.250000  -999.250000  -999.250000  -999.250000  -999.250000  -999.250000
 1963.0000000 2.0793411732 2.0793411732 68.589584351 0.0000000000 13.030144691  -999.250000 9.7644138336 1.2794694901 1.3731915951  -999.250000  -999.250000  -999.250000  -999.250000  -999.250000  -999.250000
 1963.5000000 2.0904412270 2.0904412270 68.773719788 0.0000000000 17.028686523  -999.250000 9.6095743179 1.2810640335 1.3747215271  -999.250000  -999.250000  -999.250000  -999.250000  -999.250000  -999.250000
 1964.0000000 2.1089751720 2.1089751720 68.720184326 0.0000000000 16.544061661  -999.250000 9.6099996567 1.2826584578 1.3762513399  -999.250000  -999.250000  -999.250000  -999.250000  -999.250000  -999.250000
 1964.5000000 2.1002821922 2.1002821922 68.521125793 0.0000000000 14.891903877  -999.250000 9.6099996567 1.2842527628 1.3777810335  -999.250000  -999.250000  -999.250000  -999.250000  -999.250000  -999.250000
 1965.0000000 2.0679943562 2.0679943562 68.730354309 0.0000000000 11.887009621  -999.250000 9.6131019592 1.2858469486 1.3793107271  -999.250000  -999.250000  -999.250000  -999.250000  -999.250000  -999.250000
 1965.5000000 2.0620737076 2.0620737076 68.529647827 0.0000000000 11.683235168  -999.250000 9.6140003204 1.2874414921 1.3808406591  -999.250000  -999.250000  -999.250000  -999.250000  -999.250000  -999.250000
 1966.0000000 2.0829999447 2.0829999447 68.742919922 0.0000000000 10.195460320  -999.250000 9.6142625809 1.2890359163 1.3823704720  -999.250000  -999.250000  -999.250000  -999.250000  -999.250000  -999.250000
 1966.5000000 2.0925431252 2.0925431252 68.802528381 0.0000000000 10.744446754  -999.250000 9.6250867844 1.2906302214 1.3839001656  -999.250000  -999.250000  -999.250000  -999.250000  -999.250000  -999.250000
 1967.0000000 2.0914716721 2.0914716721 68.622375488 0.0000000000 12.667218208  -999.250000 9.6300001144 1.2922244072 1.3854298592  -999.250000  -999.250000  -999.250000  -999.250000  -999.250000  -999.250000
 1967.5000000 2.0591547489 2.0591547489 68.514976501 0.0000000000 13.280452728  -999.250000 9.6331052780 1.2938189507 1.3869599104  -999.250000  -999.250000  -999.250000  -999.250000  -999.250000  -999.250000
 1968.0000000 2.1018421650 2.1018421650 68.498817444 0.0000000000 11.461890221  -999.250000 9.6419296265 1.2954133749 1.3884896040  -999.250000  -999.250000  -999.250000  -999.250000  -999.250000  -999.250000
 1968.5000000 2.0786666870 2.0786666870 68.489425659 0.0000000000 11.509666443  -999.250000 9.6466665268 1.2970076799 1.3900194168  -999.250000  -999.250000  -999.250000  -999.250000  -999.250000  -999.250000
 1969.0000000 2.0836300850 2.0836300850 68.452552795 0.0000000000 12.674655914  -999.250000 9.6458415985 1.2986019850 1.3915489912  -999.250000  -999.250000  -999.250000  -999.250000  -999.250000  -999.250000
