# LAS format log file from PETREL
# Project units are specified as depth units
#==================================================================
~Version information
VERS.   2.0:
WRAP.   NO:
#==================================================================
~Well
STRT .m      0.0000000000 :
STOP .m      3085.5000000 :
STEP .m     0.50000000 :
NULL .        -999.250000 :
COMP.           : COMPANY
WELL.  BIR-3   : WELL
FLD.            : FIELD
LOC.            : LOCATION
SRVC.           : SERVICE COMPANY
DATE.  2022-11-03 20:42:46   : Log Export Date {yyyy-MM-dd HH:mm:ss}
PROV.           : PROVINCE
UWI.   11000075011001   : UNIQUE WELL ID
API.            : API NUMBER
#==================================================================
~Curve
DEPT .m                   : DEPTH
DENS .g/cm3               : DENS
DEN .g/cm3                : DEN
DTC_Avg2 .us/ft           : DTC_Avg2
FLGR .gAPI                : FLGR
GR .gAPI                  : GR
PORNET_NOV14 .m3/m3       : PORNET_NOV14
CALI .in                  : CALI
RES_MIC .ohm.m            : RES_MIC
RES_DEP .ohm.m            : RES_DEP
VCL_2014 ._               : VCL_2014
SHNET ._                  : SHNET
SH ._                     : SH
SH_CAP ._                 : SH_CAP
PERMNET_NOV14 .mD         : PERMNET_NOV14
PERMNET_2015 .mD          : PERMNET_2015
~Parameter
#==================================================================
~Ascii
# ...
 2164.5000000 2.1649999619 2.1649999619 67.964614868 0.0000000000 19.692409515  -999.250000 9.8548336029 1.9219994545 1.9896986485  -999.250000  -999.250000  -999.250000  -999.250000  -999.250000  -999.250000
 2165.0000000 2.1279630661 2.1279630661 68.008384705 0.0000000000 16.498802185  -999.250000 9.8769998550 1.9235936403 1.9912282228  -999.250000  -999.250000  -999.250000  -999.250000  -999.250000  -999.250000
 2165.5000000 2.1165094376 2.1165094376 67.964347839 0.0000000000 15.794827461  -999.250000 9.8823652267 1.9251878262 1.9927579165  -999.250000  -999.250000  -999.250000  -999.250000  -999.250000  -999.250000
 2166.0000000 2.1203856468 2.1203856468 67.940826416 0.0000000000 17.114917755  -999.250000 9.8438110352 1.9267823696 1.9942878485  -999.250000  -999.250000  -999.250000  -999.250000  -999.250000  -999.250000
 2166.5000000 2.1224806309 2.1224806309 68.125076294 0.0000000000 16.822614670  -999.250000 9.8488798141 1.9283770323 1.9958178997  -999.250000  -999.250000  -999.250000  -999.250000  -999.250000  -999.250000
 2167.0000000 2.1083588600 2.1083588600 68.284309387 0.0000000000 13.649577141  -999.250000 9.8162689209 1.9299710989 1.9973474741  -999.250000  -999.250000  -999.250000  -999.250000  -999.250000  -999.250000
 2167.5000000 2.0905592442 2.0905592442 67.624618530 0.0000000000 13.210923195  -999.250000 9.7575597763 1.9315654039 1.9988771677  -999.250000  -999.250000  -999.250000  -999.250000  -999.250000  -999.250000
 2168.0000000 2.0989999771 2.0989999771 67.200576782 0.0000000000 16.254016876  -999.250000 9.7500000000 1.9331597090 2.0004067421  -999.250000  -999.250000  -999.250000  -999.250000  -999.250000  -999.250000
 2168.5000000 2.1079871655 2.1079871655 68.296302795 0.0000000000 14.010204315  -999.250000 9.7229385376 1.9347544909 2.0019369125  -999.250000  -999.250000  -999.250000  -999.250000  -999.250000  -999.250000
 2169.0000000 2.0842981339 2.0842981339 68.251380920 0.0000000000 12.211269379  -999.250000 9.6828222275 1.9363485575 2.0034668446  -999.250000  -999.250000  -999.250000  -999.250000  -999.250000  -999.250000
 2169.5000000 2.0903077126 2.0903077126 68.328804016 0.0000000000 13.869281769  -999.250000 9.7100000381 1.9379428625 2.0049962997  -999.250000  -999.250000  -999.250000  -999.250000  -999.250000  -999.250000
 2170.0000000 2.1007583141 2.1007583141 68.199661255 0.0000000000 11.717339516  -999.250000 9.7100000381 1.9395370483 2.0065259933  -999.250000  -999.250000  -999.250000  -999.250000  -999.250000  -999.250000
 2170.5000000 2.0968735218 2.0968735218 68.095916748 0.0000000000 13.419231415  -999.250000 9.7052421570 1.9411318302 2.0080561638  -999.250000  -999.250000  -999.250000  -999.250000  -999.250000  -999.250000
 2171.0000000 2.0889647007 2.0889647007 68.816795349 0.0000000000 11.110032082  -999.250000 9.6875572205 1.9427261353 2.0095858574  -999.250000  -999.250000  -999.250000  -999.250000  -999.250000  -999.250000
 2171.5000000 2.1245625019 2.1245625019 68.289245605 0.0000000000 15.173500061  -999.250000 9.6703128815 1.9443203211 2.0111155510  -999.250000  -999.250000  -999.250000  -999.250000  -999.250000  -999.250000
 2172.0000000 2.1241600513 2.1241600513 68.353324890 0.0000000000 13.917072296  -999.250000 9.6739997864 1.9459146261 2.0126450062  -999.250000  -999.250000  -999.250000  -999.250000  -999.250000  -999.250000
 2172.5000000 2.0809967518 2.0809967518 68.286354065 0.0000000000 15.596136093  -999.250000 9.7274961472 1.9475092888 2.0141751766  -999.250000  -999.250000  -999.250000  -999.250000  -999.250000  -999.250000
 2173.0000000 2.0935914516 2.0935914516 68.545692444 0.0000000000 13.519808769  -999.250000 9.7379999161 1.9491035938 2.0157051086  -999.250000  -999.250000  -999.250000  -999.250000  -999.250000  -999.250000
 2173.5000000 2.0949456692 2.0949456692 68.465003967 0.0000000000 14.813557625  -999.250000 9.7379999161 1.9506977797 2.0172345638  -999.250000  -999.250000  -999.250000  -999.250000  -999.250000  -999.250000
 2174.0000000 2.1020047665 2.1020047665 68.212013245 0.0000000000 13.380610466  -999.250000 9.7367267609 1.9522919655 2.0187642574  -999.250000  -999.250000  -999.250000  -999.250000  -999.250000  -999.250000
 2174.5000000 2.1166272163 2.1166272163 68.174957275 0.0000000000 12.927946091  -999.250000 9.7340002060 1.9538866282 2.0202944279  -999.250000  -999.250000  -999.250000  -999.250000  -999.250000  -999.250000
 2175.0000000 2.1017308235 2.1017308235 68.274711609 0.0000000000 12.563461304  -999.250000 9.7459611893 1.9554811716 2.0218243599  -999.250000  -999.250000  -999.250000  -999.250000  -999.250000  -999.250000
 2175.5000000 2.0959999561 2.0959999561 68.657196045 0.0000000000 11.807961464  -999.250000 9.7695407867 1.9570752382 2.0233538151  -999.250000  -999.250000  -999.250000  -999.250000  -999.250000  -999.250000
 2176.0000000 2.1072819233 2.1072819233 68.672492981 0.0000000000 12.349862099  -999.250000 9.7964363098 1.9586694241 2.0248835087  -999.250000  -999.250000  -999.250000  -999.250000  -999.250000  -999.250000
 2176.5000000 2.0929999352 2.0929999352 68.529273987 0.0000000000 11.612999916  -999.250000 9.8344879150 1.9602640867 2.0264134407  -999.250000  -999.250000  -999.250000  -999.250000  -999.250000  -999.250000
 2177.0000000 2.0965545177 2.0965545177 68.271080017 0.0000000000 13.114057541  -999.250000 9.8330001831 1.9618586302 2.0279433727  -999.250000  -999.250000  -999.250000  -999.250000  -999.250000  -999.250000
 2177.5000000 2.0946347713 2.0946347713 68.132858276 0.0000000000 14.258095741  -999.250000 9.7979612350 1.9634526968 2.0294730663  -999.250000  -999.250000  -999.250000  -999.250000  -999.250000  -999.250000
 2178.0000000 2.0750143528 2.0750143528 68.355079651 0.0000000000 16.042995453  -999.250000 9.7673530579 1.9650470018 2.0310025215  -999.250000  -999.250000  -999.250000  -999.250000  -999.250000  -999.250000
 2178.5000000 2.0918574333 2.0918574333 68.278427124 0.0000000000 16.714088440  -999.250000 9.7847623825 1.9666414261 2.0325324535  -999.250000  -999.250000  -999.250000  -999.250000  -999.250000  -999.250000
 2179.0000000 2.0987019539 2.0987019539 68.153663635 0.0000000000 15.632730484  -999.250000 9.7537879944 1.9682360888 2.0340626240  -999.250000  -999.250000  -999.250000  -999.250000  -999.250000  -999.250000
 2179.5000000 2.1110000610 2.1110000610 68.076599121 0.0000000000 15.463761330  -999.250000 9.7179136276 1.9698302746 2.0355923176  -999.250000  -999.250000  -999.250000  -999.250000  -999.250000  -999.250000
 2180.0000000 2.1210768223 2.1210768223 68.087776184 0.0000000000 16.623460770  -999.250000 9.7100000381 1.9714244604 2.0371217728  -999.250000  -999.250000  -999.250000  -999.250000  -999.250000  -999.250000
 2180.5000000 2.1465904713 2.1465904713 67.964401245 0.0000000000 18.356920242  -999.250000 9.7266511917 1.9730187654 2.0386517048  -999.250000  -999.250000  -999.250000  -999.250000  -999.250000  -999.250000
 2181.0000000 2.1380481720 2.1380481720 68.070587158 0.0000000000 15.531528473  -999.250000 9.6838169098 1.9746135473 2.0401818752  -999.250000  -999.250000  -999.250000  -999.250000  -999.250000  -999.250000
 2181.5000000 2.1078269482 2.1078269482 67.909774780 0.0000000000 12.925099373  -999.250000 9.6903467178 1.9762077332 2.0417115688  -999.250000  -999.250000  -999.250000  -999.250000  -999.250000  -999.250000
 2182.0000000 2.0918302536 2.0918302536 68.346351624 0.0000000000 14.012463570  -999.250000 9.6963586807 1.9778019190 2.0432410240  -999.250000  -999.250000  -999.250000  -999.250000  -999.250000  -999.250000
 2182.5000000 2.0910000801 2.0910000801 68.304199219 0.0000000000 14.284580231  -999.250000 9.7293272018 1.9793962240 2.0447707176  -999.250000  -999.250000  -999.250000  -999.250000  -999.250000  -999.250000
 2183.0000000 2.1241281033 2.1241281033 68.273170471 0.0000000000 16.808403015  -999.250000 9.7174110413 1.9809910059 2.0463008881  -999.250000  -999.250000  -999.250000  -999.250000  -999.250000  -999.250000
 2183.5000000 2.1220047474 2.1220047474 68.230422974 0.0000000000 13.778779030  -999.250000 9.7100000381 1.9825851917 2.0478305817  -999.250000  -999.250000  -999.250000  -999.250000  -999.250000  -999.250000
