# LAS format log file from PETREL
# Project units are specified as depth units
#==================================================================
~Version information
VERS.   2.0:
WRAP.   NO:
#==================================================================
~Well
STRT .m      0.0000000000 :
STOP .m      3085.5000000 :
STEP .m     0.50000000 :
NULL .        -999.250000 :
COMP.           : COMPANY
WELL.  BIR-3   : WELL
FLD.            : FIELD
LOC.            : LOCATION
SRVC.           : SERVICE COMPANY
DATE.  2022-11-03 20:42:46   : Log Export Date {yyyy-MM-dd HH:mm:ss}
PROV.           : PROVINCE
UWI.   11000075011001   : UNIQUE WELL ID
API.            : API NUMBER
#==================================================================
~Curve
DEPT .m                   : DEPTH
DENS .g/cm3               : DENS
DEN .g/cm3                : DEN
DTC_Avg2 .us/ft           : DTC_Avg2
FLGR .gAPI                : FLGR
GR .gAPI                  : GR
PORNET_NOV14 .m3/m3       : PORNET_NOV14
CALI .in                  : CALI
RES_MIC .ohm.m            : RES_MIC
RES_DEP .ohm.m            : RES_DEP
VCL_2014 ._               : VCL_2014
SHNET ._                  : SHNET
SH ._                     : SH
SH_CAP ._                 : SH_CAP
PERMNET_NOV14 .mD         : PERMNET_NOV14
PERMNET_2015 .mD          : PERMNET_2015
~Parameter
#==================================================================
~Ascii
# ...
 2496.0000000 2.1174182892 2.1174182892 68.281837463 0.0000000000 12.350830078  -999.250000 10.075278282 2.9790644646 3.0039517879  -999.250000  -999.250000  -999.250000  -999.250000  -999.250000  -999.250000
 2496.5000000 2.1474037170 2.1474037170 68.089347839 0.0000000000 14.092461586  -999.250000 10.016381264 2.9806587696 3.0054814816  -999.250000  -999.250000  -999.250000  -999.250000  -999.250000  -999.250000
 2497.0000000 2.1157114506 2.1157114506 68.109619141 0.0000000000 14.906259537  -999.250000 10.060999870 2.9822528362 3.0070111752  -999.250000  -999.250000  -999.250000  -999.250000  -999.250000  -999.250000
 2497.5000000 2.1009743214 2.1009743214 68.589958191 0.0000000000 14.943436623  -999.250000 10.112975121 2.9838471413 3.0085408688  -999.250000  -999.250000  -999.250000  -999.250000  -999.250000  -999.250000
 2498.0000000 2.1214609146 2.1214609146 68.381111145 0.0000000000 14.975341797  -999.250000 10.063460350 2.9854419231 3.0100710392  -999.250000  -999.250000  -999.250000  -999.250000  -999.250000  -999.250000
 2498.5000000 2.1158590317 2.1158590317 68.098716736 0.0000000000 13.499738693  -999.250000 10.044276237 2.9870362282 3.0116007328  -999.250000  -999.250000  -999.250000  -999.250000  -999.250000  -999.250000
 2499.0000000 2.1083462238 2.1083462238 68.247673035 0.0000000000 14.196666718  -999.250000 10.048756599 2.9886302948 3.0131304264  -999.250000  -999.250000  -999.250000  -999.250000  -999.250000  -999.250000
 2499.5000000 2.1146731377 2.1146731377 68.326766968 0.0000000000 14.013264656  -999.250000 10.027716637 2.9902243614 3.0146598816  -999.250000  -999.250000  -999.250000  -999.250000  -999.250000  -999.250000
 2500.0000000 2.1270000935 2.1270000935 68.518051147 0.0000000000 12.845200539  -999.250000 10.023600578 2.9918193817 3.0161900520  -999.250000  -999.250000  -999.250000  -999.250000  -999.250000  -999.250000
 2500.5000000 2.1367692947 2.1367692947 68.158317566 0.0000000000 13.740096092  -999.250000 10.015827179 2.9934136868 3.0177197456  -999.250000  -999.250000  -999.250000  -999.250000  -999.250000  -999.250000
 2501.0000000 2.1287164688 2.1287164688 68.503181458 0.0000000000 13.199895859  -999.250000 10.036777496 2.9950077534 3.0192494392  -999.250000  -999.250000  -999.250000  -999.250000  -999.250000  -999.250000
 2501.5000000 2.1107499599 2.1107499599 68.473266602 0.0000000000 11.386833191  -999.250000 10.057791710 2.9966020584 3.0207791328  -999.250000  -999.250000  -999.250000  -999.250000  -999.250000  -999.250000
 2502.0000000 2.1013233662 2.1013233662 68.455276489 0.0000000000 11.457566261  -999.250000 10.048999786 2.9981968403 3.0223093033  -999.250000  -999.250000  -999.250000  -999.250000  -999.250000  -999.250000
 2502.5000000 2.1263959408 2.1263959408 68.230232239 0.0000000000 12.233458519  -999.250000 10.058208466 2.9997911453 3.0238389969  -999.250000  -999.250000  -999.250000  -999.250000  -999.250000  -999.250000
 2503.0000000 2.1305000782 2.1305000782 67.472290039 0.0000000000 12.206538200  -999.250000 10.047422409 3.0013854504 3.0253686905  -999.250000  -999.250000  -999.250000  -999.250000  -999.250000  -999.250000
 2503.5000000 2.1356601715 2.1356601715 67.950172424 0.0000000000 13.851831436  -999.250000 10.100330353 3.0029795170 3.0268983841  -999.250000  -999.250000  -999.250000  -999.250000  -999.250000  -999.250000
 2504.0000000 2.1083216667 2.1083216667 68.153800964 0.0000000000 14.107422829  -999.250000 10.149874687 3.0045740604 3.0284283161  -999.250000  -999.250000  -999.250000  -999.250000  -999.250000  -999.250000
 2504.5000000 2.1010928154 2.1010928154 68.137756348 0.0000000000 13.683522224  -999.250000 10.111452103 3.0061686039 3.0299582481  -999.250000  -999.250000  -999.250000  -999.250000  -999.250000  -999.250000
 2505.0000000 2.0979440212 2.0979440212 68.282463074 0.0000000000 10.977205276  -999.250000 10.128943443 3.0077626705 3.0314879417  -999.250000  -999.250000  -999.250000  -999.250000  -999.250000  -999.250000
 2505.5000000 2.0997114182 2.0997114182 68.090415955 0.0000000000 13.580749512  -999.250000 10.065711021 3.0093569756 3.0330173969  -999.250000  -999.250000  -999.250000  -999.250000  -999.250000  -999.250000
 2506.0000000 2.1091263294 2.1091263294 68.105064392 0.0000000000 13.672214508  -999.250000 10.087391853 3.0109515190 3.0345473289  -999.250000  -999.250000  -999.250000  -999.250000  -999.250000  -999.250000
 2506.5000000 2.0934903622 2.0934903622 68.320014954 0.0000000000 14.144475937  -999.250000 10.103490829 3.0125460625 3.0360774994  -999.250000  -999.250000  -999.250000  -999.250000  -999.250000  -999.250000
 2507.0000000 2.0983140469 2.0983140469 68.352241516 0.0000000000 14.462002754  -999.250000 10.096948624 3.0141403675 3.0376069546  -999.250000  -999.250000  -999.250000  -999.250000  -999.250000  -999.250000
 2507.5000000 2.1001186371 2.1001186371 68.364852905 0.0000000000 12.169880867  -999.250000 10.075235367 3.0157344341 3.0391366482  -999.250000  -999.250000  -999.250000  -999.250000  -999.250000  -999.250000
 2508.0000000 2.1033072472 2.1033072472 68.264816284 0.0000000000 11.574568748  -999.250000 10.076999664 3.0173289776 3.0406665802  -999.250000  -999.250000  -999.250000  -999.250000  -999.250000  -999.250000
 2508.5000000 2.0990512371 2.0990512371 68.195983887 0.0000000000 12.181717873  -999.250000 10.101564407 3.0189235210 3.0421967506  -999.250000  -999.250000  -999.250000  -999.250000  -999.250000  -999.250000
 2509.0000000 2.1161971092 2.1161971092 68.194549561 0.0000000000 12.713846207  -999.250000 10.068942070 3.0205178261 3.0437262058  -999.250000  -999.250000  -999.250000  -999.250000  -999.250000  -999.250000
 2509.5000000 2.0997467041 2.0997467041 68.227851868 0.0000000000 13.607160568  -999.250000 10.049576759 3.0221118927 3.0452558994  -999.250000  -999.250000  -999.250000  -999.250000  -999.250000  -999.250000
 2510.0000000 2.0943920612 2.0943920612 68.416481018 0.0000000000 13.828399658  -999.250000 10.051343918 3.0237061977 3.0467855930  -999.250000  -999.250000  -999.250000  -999.250000  -999.250000  -999.250000
 2510.5000000 2.0989999771 2.0989999771 68.313125610 0.0000000000 13.207140923  -999.250000 10.120488167 3.0253009796 3.0483157635  -999.250000  -999.250000  -999.250000  -999.250000  -999.250000  -999.250000
 2511.0000000 2.1064038277 2.1064038277 68.077087402 0.0000000000 12.797781944  -999.250000 10.112109184 3.0268952847 3.0498454571  -999.250000  -999.250000  -999.250000  -999.250000  -999.250000  -999.250000
 2511.5000000 2.1186585426 2.1186585426 68.086944580 0.0000000000 14.522336960  -999.250000 10.107634544 3.0284893513 3.0513749123  -999.250000  -999.250000  -999.250000  -999.250000  -999.250000  -999.250000
 2512.0000000 2.0971822739 2.0971822739 68.244697571 0.0000000000 14.203228951  -999.250000 10.141088486 3.0300836563 3.0529046059  -999.250000  -999.250000  -999.250000  -999.250000  -999.250000  -999.250000
 2512.5000000 2.1316623688 2.1316623688 68.176521301 0.0000000000 13.548790932  -999.250000 10.070987701 3.0316784382 3.0544350147  -999.250000  -999.250000  -999.250000  -999.250000  -999.250000  -999.250000
 2513.0000000 2.1419999599 2.1419999599 67.963577271 0.0000000000 13.166531563  -999.250000 10.140999794 3.0332727432 3.0559647083  -999.250000  -999.250000  -999.250000  -999.250000  -999.250000  -999.250000
 2513.5000000 2.1464357376 2.1464357376 68.297279358 0.0000000000 11.381653786  -999.250000 10.075769424 3.0348670483 3.0574944019  -999.250000  -999.250000  -999.250000  -999.250000  -999.250000  -999.250000
 2514.0000000 2.1373751163 2.1373751163 67.890846252 0.0000000000 11.864063263  -999.250000 9.9533128738 3.0364608765 3.0590238571  -999.250000  -999.250000  -999.250000  -999.250000  -999.250000  -999.250000
 2514.5000000 2.1446878910 2.1446878910 67.873641968 0.0000000000 10.770303726  -999.250000 10.041448593 3.0380556583 3.0605540276  -999.250000  -999.250000  -999.250000  -999.250000  -999.250000  -999.250000
 2515.0000000 2.1327500343 2.1327500343 67.928741455 0.0000000000 11.955374718  -999.250000 10.029000282 3.0396502018 3.0620837212  -999.250000  -999.250000  -999.250000  -999.250000  -999.250000  -999.250000
