# LAS format log file from PETREL
# Project units are specified as depth units
#==================================================================
~Version information
VERS.   2.0:
WRAP.   NO:
#==================================================================
~Well
STRT .m      0.0000000000 :
STOP .m      3085.5000000 :
STEP .m     0.50000000 :
NULL .        -999.250000 :
COMP.           : COMPANY
WELL.  BIR-3   : WELL
FLD.            : FIELD
LOC.            : LOCATION
SRVC.           : SERVICE COMPANY
DATE.  2022-11-03 20:42:46   : Log Export Date {yyyy-MM-dd HH:mm:ss}
PROV.           : PROVINCE
UWI.   11000075011001   : UNIQUE WELL ID
API.            : API NUMBER
#==================================================================
~Curve
DEPT .m                   : DEPTH
DENS .g/cm3               : DENS
DEN .g/cm3                : DEN
DTC_Avg2 .us/ft           : DTC_Avg2
FLGR .gAPI                : FLGR
GR .gAPI                  : GR
PORNET_NOV14 .m3/m3       : PORNET_NOV14
CALI .in                  : CALI
RES_MIC .ohm.m            : RES_MIC
RES_DEP .ohm.m            : RES_DEP
VCL_2014 ._               : VCL_2014
SHNET ._                  : SHNET
SH ._                     : SH
SH_CAP ._                 : SH_CAP
PERMNET_NOV14 .mD         : PERMNET_NOV14
PERMNET_2015 .mD          : PERMNET_2015
~Parameter
#==================================================================
~Ascii
# ...
 3022.5000000 2.4228286743 2.4228286743 75.261520386 0.0000000000 34.088645935 0.1626640707 6.6560001373 0.6885055900 0.5673648119 0.1457038820 0.0000000000 0.1484125406 0.0000000000 17.084972382 4.1835479736
 3023.0000000 2.4659166336 2.4659166336 78.688911438 0.0000000000 74.365715027 0.1105466262 6.6637501717 1.0441665649 0.9043332934 0.4568147957 0.0000000000 0.2093695700 0.0000000000 4.9771509171 7.3181424141
 3023.5000000 2.6535224915 2.6535224915 79.688186646 0.0000000000 126.50714111  -999.250000 6.7950882912 4.4172964096 3.2329070568 0.6600770354 0.0000000000 -0.195329279 0.0000000000  -999.250000  -999.250000
 3024.0000000 2.6415193081 2.6415193081 75.660469055 0.0000000000 109.08795929  -999.250000 6.9268078804 4.1527881622 3.0705769062 0.5902957320 0.0000000000 -0.110825703 0.0000000000  -999.250000  -999.250000
 3024.5000000 2.6070001125 2.6070001125 74.672378540 0.0000000000 90.170997620  -999.250000 6.8401999474 2.6640000343 2.1962001324 0.4323158562 0.0000000000 -0.012334640 0.0000000000  -999.250000  -999.250000
 3025.0000000 2.4840817451 2.4840817451 70.447845459 0.0000000000 35.637226105 0.1253395379 6.6739182472 1.5909135342 1.1356153488 0.1337073892 0.0000000000 0.1914022267 0.0000000000 7.2508344650 39.428821564
 3025.5000000 2.4729294777 2.4729294777 70.865653992 0.0000000000 28.063299179 0.1362195164 6.6850862503 1.1167179346 0.8414326906 0.1067753509 0.0000000000 0.1344311386 0.0000000000 15.916094780 12.567664146
 3026.0000000 2.4522130489 2.4522130489 70.817291260 0.0000000000 30.587562561 0.1410324574 6.6886429787 1.2640000582 0.9029967785 0.1139756516 0.0000000000 0.1980927736 0.0000000000 7.0729527473 3.2939844131
 3026.5000000 2.4883072376 2.4883072376 68.164039612 0.0000000000 27.950330734 0.1206465214 6.6919999123 1.9320927858 1.1075520515 0.1084585264 0.0000000000 0.1468403339 0.0000000000 8.0049791336 16.415826797
 3027.0000000 2.5194616318 2.5194616318 66.944938660 0.0000000000 35.611614227 0.1111779734 6.6873846054 1.8348975182 1.5636923313 0.1493763775 0.0000000000 0.2431039661 0.0000000000 5.2149066925 18.054229736
 3027.5000000 2.5450866222 2.5450866222 64.235145569 0.0000000000 35.092514038 0.0912016630 6.6447162628 4.0273895264 2.4869663715 0.1413108259 0.0000000000 0.2387975305 0.0000000000 2.1389966011 0.0941504613
 3028.0000000 2.5477659702 2.5477659702 65.866424561 0.0000000000 34.671806335 0.0957787856 6.6414260864 2.9941539764 1.9601186514 0.1459286511 0.0000000000 0.1770263463 0.0000000000 2.6214339733 0.5115826726
 3028.5000000 2.5320222378 2.5320222378 65.552848816 0.0000000000 37.486309052 0.0974410027 6.7280225754 2.7664327621 2.6239631176 0.1619663984 0.0000000000 0.3489629626 0.0000000000 2.8442192078 20.785524368
 3029.0000000 2.5663428307 2.5663428307 63.615238190 0.0000000000 42.851184845 0.0802075714 6.7493715286 5.9934949875 5.0576090813 0.1949727088 0.0000000000 0.4041009247 0.0000000000 1.3106553555 4.8639945984
 3029.5000000 2.5723075867 2.5723075867 63.755416870 0.0000000000 36.895709991 0.0799293667 6.7177371979 5.2874550819 4.4181857109 0.1554329246 0.0000000000 0.3576843441 0.0000000000 1.3020741940 0.2598008513
 3030.0000000 2.6173365116 2.6173365116 61.822475433 0.0000000000 35.840347290 0.0629685670 6.7002210617 7.9334039688 6.4502162933 0.1453760266 0.0000000000 0.3132524490 0.0000000000 0.6084170341 3.2773954868
 3030.5000000 2.5504713058 2.5504713058 62.990688324 0.0000000000 33.842887878 0.0922496989 6.6896605492 2.9115254879 3.3130545616 0.1515268236 0.0000000000 0.3924952149 0.0000000000 2.2742636204 10.681738853
 3031.0000000 2.5927114487 2.5927114487 63.330986023 0.0000000000 44.754211426 0.0705707520 6.7066154480 6.9302983284 6.1717596054 0.1992343813 0.0000000000 0.3919568360 0.0000000000 0.8542690873 0.7889642119
 3031.5000000 2.5614936352 2.5614936352 67.834060669 0.0000000000 49.374568939 0.0813461915 6.7291264534 5.8139762878 5.9867801666 0.2437003553 0.0000000000 0.4967802763 0.0000000000 1.3943998814 0.9682354927
 3032.0000000 2.5296921730 2.5296921730 71.825531006 0.0000000000 60.948513031 0.1013473943 6.7359743118 2.9862053394 2.9917819500 0.2881259322 0.0000000000 0.3905755579 0.0000000000 1.8023111820 7.4847488403
 3032.5000000 2.5080559254 2.5080559254 67.119697571 0.0000000000 40.752117157 0.1088201031 6.6793456078 2.7734527588 1.9933007956 0.1773724854 0.0000000000 0.2854287326 0.0000000000 4.6746268272 2.1490750313
 3033.0000000 2.5078766346 2.5078766346 72.796562195 0.0000000000 46.810455322 0.1190111861 6.6195483208 1.1686859131 1.1986587048 0.2312608063 0.0000000000 0.1948749572 0.0000000000 2.0527548790 5.2111649513
 3033.5000000 2.4788749218 2.4788749218 74.065811157 0.0000000000 47.148445129 0.1327024251 6.6160001755 1.1809999943 1.0070769787 0.2128059268 0.0000000000 0.2135712802 0.0000000000 4.3394851685 29.534053802
 3034.0000000 2.4655914307 2.4655914307 74.205406189 0.0000000000 45.035091400 0.1392384917 6.6201362610 1.1478605270 0.9711362123 0.2075550705 0.0000000000 0.2368714213 0.0000000000 6.1126513481 4.6447520256
 3034.5000000 2.4245600700 2.4245600700 78.192466736 0.0000000000 42.171600342 0.1566095948 6.6279230118 1.0094032288 0.6694272161 0.1957132369 0.0000000000 0.1618640274 0.0000000000 13.275256157 20.724634171
 3035.0000000 2.4264678955 2.4264678955 79.659736633 0.0000000000 62.385597229 0.1451921910 6.6100511551 0.6806410551 0.6223461628 0.3509052992 0.0000000000 0.1776681393 0.0000000000 12.682960510 75.626716614
 3035.5000000 2.5728540421 2.5728540421 79.719451904 0.0000000000 133.61578369  -999.250000 6.6249165535 7.0836043358 4.8388543129  -999.250000  -999.250000  -999.250000  -999.250000  -999.250000  -999.250000
 3036.0000000 2.6584520340 2.6584520340 79.602043152 0.0000000000 152.76234436  -999.250000 6.9003844261 6.3845767975 4.6129808426  -999.250000  -999.250000  -999.250000  -999.250000  -999.250000  -999.250000
 3036.5000000 2.6808671951 2.6808671951 77.190635681 0.0000000000 154.73658752  -999.250000 6.9225921631 5.9932909012 4.9055805206  -999.250000  -999.250000  -999.250000  -999.250000  -999.250000  -999.250000
 3037.0000000 2.6407787800 2.6407787800 76.026741028 0.0000000000 150.49862671  -999.250000 6.5209517479 6.4146823883 5.8237595558  -999.250000  -999.250000  -999.250000  -999.250000  -999.250000  -999.250000
 3037.5000000 2.6331024170 2.6331024170 74.522155762 0.0000000000 147.08267212  -999.250000 6.3455386162 8.9124097824 6.9395899773  -999.250000  -999.250000  -999.250000  -999.250000  -999.250000  -999.250000
 3038.0000000 2.6557869911 2.6557869911 76.501022339 0.0000000000 153.88015747  -999.250000 6.4643831253 8.2520704269 6.2330145836  -999.250000  -999.250000  -999.250000  -999.250000  -999.250000  -999.250000
 3038.5000000 2.6649999619 2.6649999619 75.689140320 0.0000000000 151.47920227  -999.250000 6.4779920578 9.6305999756 6.8439440727  -999.250000  -999.250000  -999.250000  -999.250000  -999.250000  -999.250000
 3039.0000000 2.6700546741 2.6700546741 76.234123230 0.0000000000 149.96138000  -999.250000 6.4800000191 9.6443080902 7.1625609398  -999.250000  -999.250000  -999.250000  -999.250000  -999.250000  -999.250000
 3039.5000000 2.6586778164 2.6586778164 76.541473389 0.0000000000 151.70373535  -999.250000 6.4678702354 10.383288383 7.1048030853  -999.250000  -999.250000  -999.250000  -999.250000  -999.250000  -999.250000
 3040.0000000 2.6210000515 2.6210000515 77.029785156 0.0000000000 152.56259155  -999.250000 6.4328589439 9.9713268280 7.3767180443  -999.250000  -999.250000  -999.250000  -999.250000  -999.250000  -999.250000
 3040.5000000 2.6517024040 2.6517024040 75.783042908 0.0000000000 153.15921021  -999.250000 6.3680639267 10.983678818 9.2423686981  -999.250000  -999.250000  -999.250000  -999.250000  -999.250000  -999.250000
 3041.0000000 2.6690735817 2.6690735817 74.534431458 0.0000000000 145.53378296  -999.250000 6.3590369225 12.664521217 9.3674268723  -999.250000  -999.250000  -999.250000  -999.250000  -999.250000  -999.250000
 3041.5000000 2.6362886429 2.6362886429 74.500816345 0.0000000000 155.41592407  -999.250000 6.3409295082 12.067794800 9.8812274933  -999.250000  -999.250000  -999.250000  -999.250000  -999.250000  -999.250000
