# LAS format log file from PETREL
# Project units are specified as depth units
#==================================================================
~Version information
VERS.   2.0:
WRAP.   NO:
#==================================================================
~Well
STRT .m      0.0000000000 :
STOP .m      3085.5000000 :
STEP .m     0.50000000 :
NULL .        -999.250000 :
COMP.           : COMPANY
WELL.  BIR-3   : WELL
FLD.            : FIELD
LOC.            : LOCATION
SRVC.           : SERVICE COMPANY
DATE.  2022-11-03 20:42:46   : Log Export Date {yyyy-MM-dd HH:mm:ss}
PROV.           : PROVINCE
UWI.   11000075011001   : UNIQUE WELL ID
API.            : API NUMBER
#==================================================================
~Curve
DEPT .m                   : DEPTH
DENS .g/cm3               : DENS
DEN .g/cm3                : DEN
DTC_Avg2 .us/ft           : DTC_Avg2
FLGR .gAPI                : FLGR
GR .gAPI                  : GR
PORNET_NOV14 .m3/m3       : PORNET_NOV14
CALI .in                  : CALI
RES_MIC .ohm.m            : RES_MIC
RES_DEP .ohm.m            : RES_DEP
VCL_2014 ._               : VCL_2014
SHNET ._                  : SHNET
SH ._                     : SH
SH_CAP ._                 : SH_CAP
PERMNET_NOV14 .mD         : PERMNET_NOV14
PERMNET_2015 .mD          : PERMNET_2015
~Parameter
#==================================================================
~Ascii
# ...
 2379.0000000 2.1297645569 2.1297645569 67.996231079 0.0000000000 13.670153618  -999.250000 9.8326444626 2.6059820652 2.6459796429  -999.250000  -999.250000  -999.250000  -999.250000  -999.250000  -999.250000
 2379.5000000 2.1235175133 2.1235175133 67.816802979 0.0000000000 13.160407066  -999.250000 9.7978124619 2.6075770855 2.6475098133  -999.250000  -999.250000  -999.250000  -999.250000  -999.250000  -999.250000
 2380.0000000 2.1337981224 2.1337981224 67.900856018 0.0000000000 13.793047905  -999.250000 9.8387689590 2.6091711521 2.6490395069  -999.250000  -999.250000  -999.250000  -999.250000  -999.250000  -999.250000
 2380.5000000 2.1309216022 2.1309216022 67.548469543 0.0000000000 13.260956764  -999.250000 9.8150415421 2.6107654572 2.6505692005  -999.250000  -999.250000  -999.250000  -999.250000  -999.250000  -999.250000
 2381.0000000 2.1266410351 2.1266410351 67.970230103 0.0000000000 11.428922653  -999.250000 9.8128461838 2.6123597622 2.6520986557  -999.250000  -999.250000  -999.250000  -999.250000  -999.250000  -999.250000
 2381.5000000 2.1116666794 2.1116666794 68.357475281 0.0000000000 12.089204788  -999.250000 9.8927688599 2.6139545441 2.6536290646  -999.250000  -999.250000  -999.250000  -999.250000  -999.250000  -999.250000
 2382.0000000 2.1027643681 2.1027643681 68.167671204 0.0000000000 11.948349953  -999.250000 9.8903141022 2.6155486107 2.6551585197  -999.250000  -999.250000  -999.250000  -999.250000  -999.250000  -999.250000
 2382.5000000 2.1259999275 2.1259999275 68.161437988 0.0000000000 12.165269852  -999.250000 9.8850002289 2.6171429157 2.6566884518  -999.250000  -999.250000  -999.250000  -999.250000  -999.250000  -999.250000
 2383.0000000 2.1095528603 2.1095528603 68.260108948 0.0000000000 14.355113983  -999.250000 9.8788232803 2.6187369823 2.6582179070  -999.250000  -999.250000  -999.250000  -999.250000  -999.250000  -999.250000
 2383.5000000 2.1125288010 2.1125288010 67.930793762 0.0000000000 13.838966370  -999.250000 9.8478841782 2.6203320026 2.6597483158  -999.250000  -999.250000  -999.250000  -999.250000  -999.250000  -999.250000
 2384.0000000 2.1304616928 2.1304616928 68.147567749 0.0000000000 13.509737015  -999.250000 9.8289556503 2.6219260693 2.6612780094  -999.250000  -999.250000  -999.250000  -999.250000  -999.250000  -999.250000
 2384.5000000 2.1186265945 2.1186265945 67.916053772 0.0000000000 11.000734329  -999.250000 9.8352642059 2.6235203743 2.6628074646  -999.250000  -999.250000  -999.250000  -999.250000  -999.250000  -999.250000
 2385.0000000 2.1334807873 2.1334807873 67.878219604 0.0000000000 11.726759911  -999.250000 9.8182115555 2.6251146793 2.6643371582  -999.250000  -999.250000  -999.250000  -999.250000  -999.250000  -999.250000
 2385.5000000 2.1298973560 2.1298973560 68.163734436 0.0000000000 12.225862503  -999.250000 9.8728685379 2.6267094612 2.6658675671  -999.250000  -999.250000  -999.250000  -999.250000  -999.250000  -999.250000
 2386.0000000 2.1296634674 2.1296634674 67.768867493 0.0000000000 12.303485870  -999.250000 9.8738317490 2.6283037663 2.6673970222  -999.250000  -999.250000  -999.250000  -999.250000  -999.250000  -999.250000
 2386.5000000 2.1379358768 2.1379358768 67.815834045 0.0000000000 13.415077209  -999.250000 9.8681030273 2.6298978329 2.6689267159  -999.250000  -999.250000  -999.250000  -999.250000  -999.250000  -999.250000
 2387.0000000 2.1325416565 2.1325416565 67.829521179 0.0000000000 13.541957855  -999.250000 9.8540210724 2.6314921379 2.6704564095  -999.250000  -999.250000  -999.250000  -999.250000  -999.250000  -999.250000
 2387.5000000 2.1369328499 2.1369328499 67.826721191 0.0000000000 14.115980148  -999.250000 9.9050445557 2.6330869198 2.6719865799  -999.250000  -999.250000  -999.250000  -999.250000  -999.250000  -999.250000
 2388.0000000 2.1342084408 2.1342084408 67.919570923 0.0000000000 13.035250664  -999.250000 9.9169998169 2.6346809864 2.6735162735  -999.250000  -999.250000  -999.250000  -999.250000  -999.250000  -999.250000
 2388.5000000 2.1245768070 2.1245768070 67.842994690 0.0000000000 10.944250107  -999.250000 9.9130001068 2.6362752914 2.6750459671  -999.250000  -999.250000  -999.250000  -999.250000  -999.250000  -999.250000
 2389.0000000 2.1282949448 2.1282949448 68.021133423 0.0000000000 10.420416832  -999.250000 9.8895893097 2.6378695965 2.6765756607  -999.250000  -999.250000  -999.250000  -999.250000  -999.250000  -999.250000
 2389.5000000 2.0983278751 2.0983278751 68.338714600 0.0000000000 11.849630356  -999.250000 9.9193439484 2.6394643784 2.6781058311  -999.250000  -999.250000  -999.250000  -999.250000  -999.250000  -999.250000
 2390.0000000 2.0846796036 2.0846796036 68.233688354 0.0000000000 13.194101334  -999.250000 9.9267549515 2.6410586834 2.6796355247  -999.250000  -999.250000  -999.250000  -999.250000  -999.250000  -999.250000
 2390.5000000 2.0743043423 2.0743043423 68.295799255 0.0000000000 13.320009232  -999.250000 9.9229135513 2.6426527500 2.6811649799  -999.250000  -999.250000  -999.250000  -999.250000  -999.250000  -999.250000
 2391.0000000 2.0789039135 2.0789039135 68.391128540 0.0000000000 10.992538452  -999.250000 9.9309520721 2.6442470551 2.6826946735  -999.250000  -999.250000  -999.250000  -999.250000  -999.250000  -999.250000
 2391.5000000 2.0969998837 2.0969998837 68.564559937 0.0000000000 9.8119258881  -999.250000 9.9473791122 2.6458418369 2.6842248440  -999.250000  -999.250000  -999.250000  -999.250000  -999.250000  -999.250000
 2392.0000000 2.0780000687 2.0780000687 68.653923035 0.0000000000 11.124769211  -999.250000 10.032691956 2.6474361420 2.6857545376  -999.250000  -999.250000  -999.250000  -999.250000  -999.250000  -999.250000
 2392.5000000 2.0872757435 2.0872757435 68.315551758 0.0000000000 12.971843719  -999.250000 10.069724083 2.6490302086 2.6872842312  -999.250000  -999.250000  -999.250000  -999.250000  -999.250000  -999.250000
 2393.0000000 2.0720000267 2.0720000267 68.425552368 0.0000000000 11.224631310  -999.250000 10.020813942 2.6506245136 2.6888139248  -999.250000  -999.250000  -999.250000  -999.250000  -999.250000  -999.250000
 2393.5000000 2.1114273071 2.1114273071 68.473823547 0.0000000000 10.959669113  -999.250000 9.9914770126 2.6522190571 2.6903438568  -999.250000  -999.250000  -999.250000  -999.250000  -999.250000  -999.250000
 2394.0000000 2.1173236370 2.1173236370 67.722473145 0.0000000000 10.525698662  -999.250000 9.9650859833 2.6538136005 2.6918740273  -999.250000  -999.250000  -999.250000  -999.250000  -999.250000  -999.250000
 2394.5000000 2.1158845425 2.1158845425 67.729217529 0.0000000000 9.8482494354  -999.250000 9.9046154022 2.6554076672 2.6934034824  -999.250000  -999.250000  -999.250000  -999.250000  -999.250000  -999.250000
 2395.0000000 2.1465449333 2.1465449333 67.796279907 0.0000000000 9.6955308914  -999.250000 9.8624410629 2.6570019722 2.6949331760  -999.250000  -999.250000  -999.250000  -999.250000  -999.250000  -999.250000
 2395.5000000 2.1275358200 2.1275358200 67.736061096 0.0000000000 10.964192390  -999.250000 9.8595123291 2.6585965157 2.6964631081  -999.250000  -999.250000  -999.250000  -999.250000  -999.250000  -999.250000
 2396.0000000 2.1262147427 2.1262147427 67.892723083 0.0000000000 10.647603035  -999.250000 9.8740673065 2.6601910591 2.6979930401  -999.250000  -999.250000  -999.250000  -999.250000  -999.250000  -999.250000
 2396.5000000 2.1273286343 2.1273286343 67.864768982 0.0000000000 11.234041214  -999.250000 9.9465913773 2.6617853642 2.6995227337  -999.250000  -999.250000  -999.250000  -999.250000  -999.250000  -999.250000
 2397.0000000 2.1179230213 2.1179230213 67.858741760 0.0000000000 11.788153648  -999.250000 9.9490003586 2.6633794308 2.7010521889  -999.250000  -999.250000  -999.250000  -999.250000  -999.250000  -999.250000
 2397.5000000 2.1241712570 2.1241712570 68.148750305 0.0000000000 10.264102936  -999.250000 9.9410524368 2.6649739742 2.7025821209  -999.250000  -999.250000  -999.250000  -999.250000  -999.250000  -999.250000
 2398.0000000 2.1527261734 2.1527261734 68.030647278 0.0000000000 11.961350441  -999.250000 9.9092016220 2.6665685177 2.7041120529  -999.250000  -999.250000  -999.250000  -999.250000  -999.250000  -999.250000
