# LAS format log file from PETREL
# Project units are specified as depth units
#==================================================================
~Version information
VERS.   2.0:
WRAP.   NO:
#==================================================================
~Well
STRT .m      0.0000000000 :
STOP .m      3085.5000000 :
STEP .m     0.50000000 :
NULL .        -999.250000 :
COMP.           : COMPANY
WELL.  BIR-3   : WELL
FLD.            : FIELD
LOC.            : LOCATION
SRVC.           : SERVICE COMPANY
DATE.  2022-11-03 20:42:46   : Log Export Date {yyyy-MM-dd HH:mm:ss}
PROV.           : PROVINCE
UWI.   11000075011001   : UNIQUE WELL ID
API.            : API NUMBER
#==================================================================
~Curve
DEPT .m                   : DEPTH
DENS .g/cm3               : DENS
DEN .g/cm3                : DEN
DTC_Avg2 .us/ft           : DTC_Avg2
FLGR .gAPI                : FLGR
GR .gAPI                  : GR
PORNET_NOV14 .m3/m3       : PORNET_NOV14
CALI .in                  : CALI
RES_MIC .ohm.m            : RES_MIC
RES_DEP .ohm.m            : RES_DEP
VCL_2014 ._               : VCL_2014
SHNET ._                  : SHNET
SH ._                     : SH
SH_CAP ._                 : SH_CAP
PERMNET_NOV14 .mD         : PERMNET_NOV14
PERMNET_2015 .mD          : PERMNET_2015
~Parameter
#==================================================================
~Ascii
# ...
 2281.5000000 2.1474182606 2.1474182606 67.494651794 0.0000000000 15.584525108  -999.250000 9.8898544312 2.2950811386 2.3476703167  -999.250000  -999.250000  -999.250000  -999.250000  -999.250000  -999.250000
 2282.0000000 2.1600129604 2.1600129604 67.581436157 0.0000000000 16.963901520  -999.250000 9.9759998322 2.2966752052 2.3491997719  -999.250000  -999.250000  -999.250000  -999.250000  -999.250000  -999.250000
 2282.5000000 2.1894617081 2.1894617081 67.643730164 0.0000000000 16.762514114  -999.250000 10.008696556 2.2982695103 2.3507294655  -999.250000  -999.250000  -999.250000  -999.250000  -999.250000  -999.250000
 2283.0000000 2.1499454975 2.1499454975 67.606178284 0.0000000000 17.641542435  -999.250000 9.9883155823 2.2998640537 2.3522596359  -999.250000  -999.250000  -999.250000  -999.250000  -999.250000  -999.250000
 2283.5000000 2.1369807720 2.1369807720 67.815101624 0.0000000000 16.659442902  -999.250000 9.9818077087 2.3014585972 2.3537893295  -999.250000  -999.250000  -999.250000  -999.250000  -999.250000  -999.250000
 2284.0000000 2.1392340660 2.1392340660 67.733909607 0.0000000000 15.643988609  -999.250000 9.9766168594 2.3030529022 2.3553192616  -999.250000  -999.250000  -999.250000  -999.250000  -999.250000  -999.250000
 2284.5000000 2.1359999180 2.1359999180 67.946784973 0.0000000000 16.889909744  -999.250000 9.9195604324 2.3046469688 2.3568487167  -999.250000  -999.250000  -999.250000  -999.250000  -999.250000  -999.250000
 2285.0000000 2.1427536011 2.1427536011 67.832015991 0.0000000000 16.632709503  -999.250000 9.8721380234 2.3062415123 2.3583788872  -999.250000  -999.250000  -999.250000  -999.250000  -999.250000  -999.250000
 2285.5000000 2.1289632320 2.1289632320 67.849998474 0.0000000000 14.978189468  -999.250000 9.8857192993 2.3078360558 2.3599085808  -999.250000  -999.250000  -999.250000  -999.250000  -999.250000  -999.250000
 2286.0000000 2.1070001125 2.1070001125 67.816413879 0.0000000000 14.265000343  -999.250000 9.8859996796 2.3094303608 2.3614382744  -999.250000  -999.250000  -999.250000  -999.250000  -999.250000  -999.250000
 2286.5000000 2.1408045292 2.1408045292 67.774482727 0.0000000000 15.375885963  -999.250000 9.9196825027 2.3110244274 2.3629679680  -999.250000  -999.250000  -999.250000  -999.250000  -999.250000  -999.250000
 2287.0000000 2.1975071430 2.1975071430 67.483848572 0.0000000000 16.334836960  -999.250000 9.8906440735 2.3126189709 2.3644976616  -999.250000  -999.250000  -999.250000  -999.250000  -999.250000  -999.250000
 2287.5000000 2.1806282997 2.1806282997 67.475189209 0.0000000000 17.639423370  -999.250000 9.8891153336 2.3142135143 2.3660278320  -999.250000  -999.250000  -999.250000  -999.250000  -999.250000  -999.250000
 2288.0000000 2.1278765202 2.1278765202 67.628326416 0.0000000000 15.236948967  -999.250000 9.9753437042 2.3158075809 2.3675572872  -999.250000  -999.250000  -999.250000  -999.250000  -999.250000  -999.250000
 2288.5000000 2.1348268986 2.1348268986 67.746421814 0.0000000000 15.828826904  -999.250000 9.9460964203 2.3174018860 2.3690872192  -999.250000  -999.250000  -999.250000  -999.250000  -999.250000  -999.250000
 2289.0000000 2.1283040047 2.1283040047 68.029724121 0.0000000000 16.008140564  -999.250000 9.9458055496 2.3189964294 2.3706169128  -999.250000  -999.250000  -999.250000  -999.250000  -999.250000  -999.250000
 2289.5000000 2.1199326515 2.1199326515 68.112548828 0.0000000000 16.390836716  -999.250000 9.9927644730 2.3205909729 2.3721470833  -999.250000  -999.250000  -999.250000  -999.250000  -999.250000  -999.250000
 2290.0000000 2.1150128841 2.1150128841 67.952453613 0.0000000000 15.783343315  -999.250000 9.9837274551 2.3221852779 2.3736767769  -999.250000  -999.250000  -999.250000  -999.250000  -999.250000  -999.250000
 2290.5000000 2.1186361313 2.1186361313 67.821014404 0.0000000000 15.565593719  -999.250000 10.032309532 2.3237795830 2.3752062321  -999.250000  -999.250000  -999.250000  -999.250000  -999.250000  -999.250000
 2291.0000000 2.1634240150 2.1634240150 67.739654541 0.0000000000 18.018718719  -999.250000 9.9298000336 2.3253738880 2.3767359257  -999.250000  -999.250000  -999.250000  -999.250000  -999.250000  -999.250000
 2291.5000000 2.1563582420 2.1563582420 67.581176758 0.0000000000 18.934423447  -999.250000 9.9112539291 2.3269686699 2.3782660961  -999.250000  -999.250000  -999.250000  -999.250000  -999.250000  -999.250000
 2292.0000000 2.1552979946 2.1552979946 67.610977173 0.0000000000 16.013475418  -999.250000 9.9933261871 2.3285627365 2.3797957897  -999.250000  -999.250000  -999.250000  -999.250000  -999.250000  -999.250000
 2292.5000000 2.1409518719 2.1409518719 67.700202942 0.0000000000 15.804756165  -999.250000 10.099252701 2.3301568031 2.3813254833  -999.250000  -999.250000  -999.250000  -999.250000  -999.250000  -999.250000
 2293.0000000 2.1595551968 2.1595551968 67.679977417 0.0000000000 17.773778915  -999.250000 9.9541234970 2.3317511082 2.3828549385  -999.250000  -999.250000  -999.250000  -999.250000  -999.250000  -999.250000
 2293.5000000 2.1569151878 2.1569151878 67.671188354 0.0000000000 19.891170502  -999.250000 9.9935951233 2.3333458900 2.3843851089  -999.250000  -999.250000  -999.250000  -999.250000  -999.250000  -999.250000
 2294.0000000 2.1481025219 2.1481025219 67.913482666 0.0000000000 18.424949646  -999.250000 9.9801864624 2.3349401951 2.3859150410  -999.250000  -999.250000  -999.250000  -999.250000  -999.250000  -999.250000
 2294.5000000 2.1555144787 2.1555144787 67.853111267 0.0000000000 17.334995270  -999.250000 10.058135033 2.3365342617 2.3874447346  -999.250000  -999.250000  -999.250000  -999.250000  -999.250000  -999.250000
 2295.0000000 2.1616184711 2.1616184711 67.368041992 0.0000000000 14.997573853  -999.250000 10.118054390 2.3381285667 2.3889744282  -999.250000  -999.250000  -999.250000  -999.250000  -999.250000  -999.250000
 2295.5000000 2.1523361206 2.1523361206 66.980117798 0.0000000000 18.429311752  -999.250000 10.071824074 2.3397233486 2.3905043602  -999.250000  -999.250000  -999.250000  -999.250000  -999.250000  -999.250000
 2296.0000000 2.1477661133 2.1477661133 67.014778137 0.0000000000 16.858480453  -999.250000 9.9577655792 2.3413176537 2.3920342922  -999.250000  -999.250000  -999.250000  -999.250000  -999.250000  -999.250000
 2296.5000000 2.1488974094 2.1488974094 67.220634460 0.0000000000 16.720077515  -999.250000 9.9569997787 2.3429119587 2.3935637474  -999.250000  -999.250000  -999.250000  -999.250000  -999.250000  -999.250000
 2297.0000000 2.1673989296 2.1673989296 67.778350830 0.0000000000 14.484663010  -999.250000 9.9122695923 2.3445060253 2.3950934410  -999.250000  -999.250000  -999.250000  -999.250000  -999.250000  -999.250000
 2297.5000000 2.1524798870 2.1524798870 67.760017395 0.0000000000 14.250000000  -999.250000 9.9892148972 2.3461005688 2.3966233730  -999.250000  -999.250000  -999.250000  -999.250000  -999.250000  -999.250000
 2298.0000000 2.1477789879 2.1477789879 67.822555542 0.0000000000 14.294423103  -999.250000 9.9696340561 2.3476951122 2.3981533051  -999.250000  -999.250000  -999.250000  -999.250000  -999.250000  -999.250000
 2298.5000000 2.1162915230 2.1162915230 67.784637451 0.0000000000 14.404208183  -999.250000 9.9502286911 2.3492891788 2.3996829987  -999.250000  -999.250000  -999.250000  -999.250000  -999.250000  -999.250000
 2299.0000000 2.1299870014 2.1299870014 67.859397888 0.0000000000 15.390646935  -999.250000 9.9940128326 2.3508834839 2.4012126923  -999.250000  -999.250000  -999.250000  -999.250000  -999.250000  -999.250000
 2299.5000000 2.1196591854 2.1196591854 68.004173279 0.0000000000 14.534263611  -999.250000 9.9830017090 2.3524780273 2.4027426243  -999.250000  -999.250000  -999.250000  -999.250000  -999.250000  -999.250000
 2300.0000000 2.1318638325 2.1318638325 68.048408508 0.0000000000 16.969911575  -999.250000 9.9885444641 2.3540725708 2.4042727947  -999.250000  -999.250000  -999.250000  -999.250000  -999.250000  -999.250000
 2300.5000000 2.1078655720 2.1078655720 68.072433472 0.0000000000 14.242903709  -999.250000 9.9789810181 2.3556668758 2.4058022499  -999.250000  -999.250000  -999.250000  -999.250000  -999.250000  -999.250000
